{
"type": "FeatureCollection",
"features": [
{ "type": "Feature", "properties": { "STREET1": "04TH ST", "STREET2": "16TH ST", "STREET3": null, "STREET4": null, "TSP_Type": "TSP,FIRE PREEMPT", "start_date": 2010, "data_as_of": "04/26/2023 03:25:40 PM", "owner": "SFMTA" }, "geometry": { "type": "Point", "coordinates": [ -122.39079717, 37.766802442 ] } },
{ "type": "Feature", "properties": { "STREET1": "JACKSON", "STREET2": "POWELL", "STREET3": null, "STREET4": null, "TSP_Type": "CABLE CAR PREEMPTION", "start_date": 0, "data_as_of": "04/26/2023 03:24:48 PM", "owner": "SFMTA" }, "geometry": { "type": "Point", "coordinates": [ -122.409898752, 37.795616425 ] } },
{ "type": "Feature", "properties": { "STREET1": "03RD ST", "STREET2": "LE CONTE", "STREET3": null, "STREET4": null, "TSP_Type": "TSP", "start_date": 2005, "data_as_of": "04/26/2023 03:25:40 PM", "owner": "SFMTA" }, "geometry": { "type": "Point", "coordinates": [ -122.397477616, 37.718834533 ] } },
{ "type": "Feature", "properties": { "STREET1": "KING", "STREET2": "MIDBLOCK AT", "STREET3": "04TH ST", "STREET4": "05TH ST", "TSP_Type": "TSP", "start_date": 1997, "data_as_of": "04/26/2023 03:25:40 PM", "owner": "SFMTA" }, "geometry": { "type": "Point", "coordinates": [ -122.395190465, 37.775526947 ] } },
{ "type": "Feature", "properties": { "STREET1": "03RD ST", "STREET2": "INGERSON", "STREET3": null, "STREET4": null, "TSP_Type": "TSP", "start_date": 2004, "data_as_of": "04/26/2023 03:24:48 PM", "owner": "SFMTA" }, "geometry": { "type": "Point", "coordinates": [ -122.396272842, 37.72098153 ] } },
{ "type": "Feature", "properties": { "STREET1": "O'SHAUGHNESSY", "STREET2": "PORTOLA", "STREET3": "WOODSIDE", "STREET4": null, "TSP_Type": "TSP,FIRE PREEMPT", "start_date": 0, "data_as_of": "04/26/2023 03:24:48 PM", "owner": "SFMTA" }, "geometry": { "type": "Point", "coordinates": [ -122.451623987, 37.745534237 ] } },
{ "type": "Feature", "properties": { "STREET1": "EMBARCADERO", "STREET2": "GREEN", "STREET3": null, "STREET4": null, "TSP_Type": "TSP", "start_date": 1995, "data_as_of": "04/26/2023 03:24:48 PM", "owner": "SFMTA" }, "geometry": { "type": "Point", "coordinates": [ -122.399130265, 37.800896324 ] } },
{ "type": "Feature", "properties": { "STREET1": "03RD ST", "STREET2": "EGBERT", "STREET3": null, "STREET4": null, "TSP_Type": "TSP,HEAVY RAIL PREEMPT", "start_date": 2004, "data_as_of": "04/26/2023 03:24:48 PM", "owner": "SFMTA" }, "geometry": { "type": "Point", "coordinates": [ -122.394926152, 37.723972564 ] } },
{ "type": "Feature", "properties": { "STREET1": "GEARY", "STREET2": "PARK PRESIDIO", "STREET3": null, "STREET4": null, "TSP_Type": "TSP,FIRE PREEMPT", "start_date": 2009, "data_as_of": "04/26/2023 03:24:48 PM", "owner": "SFMTA" }, "geometry": { "type": "Point", "coordinates": [ -122.472312256, 37.780655828 ] } },
{ "type": "Feature", "properties": { "STREET1": "LEAVENWORTH", "STREET2": "POST", "STREET3": null, "STREET4": null, "TSP_Type": "TSP,FIRE PREEMPT", "start_date": 2018, "data_as_of": "04/26/2023 03:24:48 PM", "owner": "SFMTA" }, "geometry": { "type": "Point", "coordinates": [ -122.414995423, 37.787453844 ] } },
{ "type": "Feature", "properties": { "STREET1": "47TH AVE", "STREET2": "FULTON", "STREET3": null, "STREET4": null, "TSP_Type": "TSP,FIRE PREEMPT", "start_date": 2015, "data_as_of": "04/26/2023 03:25:40 PM", "owner": "SFMTA" }, "geometry": { "type": "Point", "coordinates": [ -122.507750666, 37.771495034 ] } },
{ "type": "Feature", "properties": { "STREET1": "KING", "STREET2": "MIDBLOCK AT", "STREET3": "03RD ST", "STREET4": "04TH ST", "TSP_Type": "TSP", "start_date": 1997, "data_as_of": "04/26/2023 03:25:40 PM", "owner": "SFMTA" }, "geometry": { "type": "Point", "coordinates": [ -122.392934481, 37.777272796 ] } },
{ "type": "Feature", "properties": { "STREET1": "CARTER", "STREET2": "GENEVA", "STREET3": "WALBRIDGE", "STREET4": null, "TSP_Type": "TSP,FIRE PREEMPT", "start_date": 0, "data_as_of": "04/26/2023 03:24:48 PM", "owner": "SFMTA" }, "geometry": { "type": "Point", "coordinates": [ -122.423353436, 37.70925095 ] } },
{ "type": "Feature", "properties": { "STREET1": "HAYES", "STREET2": "STANYAN", "STREET3": null, "STREET4": null, "TSP_Type": "TSP,FIRE PREEMPT", "start_date": 0, "data_as_of": "04/26/2023 03:25:40 PM", "owner": "SFMTA" }, "geometry": { "type": "Point", "coordinates": [ -122.454285117, 37.772895178 ] } },
{ "type": "Feature", "properties": { "STREET1": "19TH AVE", "STREET2": "TARAVAL", "STREET3": null, "STREET4": null, "TSP_Type": "TSP,FIRE PREEMPT", "start_date": 2009, "data_as_of": "04/26/2023 03:24:48 PM", "owner": "SFMTA" }, "geometry": { "type": "Point", "coordinates": [ -122.475644468, 37.743051812 ] } },
{ "type": "Feature", "properties": { "STREET1": "CLAY", "STREET2": "DAVIS", "STREET3": null, "STREET4": null, "TSP_Type": "TSP,FIRE PREEMPT", "start_date": 2001, "data_as_of": "04/26/2023 03:24:48 PM", "owner": "SFMTA" }, "geometry": { "type": "Point", "coordinates": [ -122.397974749, 37.795312942 ] } },
{ "type": "Feature", "properties": { "STREET1": "GEARY", "STREET2": "PARKER", "STREET3": null, "STREET4": null, "TSP_Type": "TSP,FIRE PREEMPT", "start_date": 0, "data_as_of": "04/26/2023 03:25:40 PM", "owner": "SFMTA" }, "geometry": { "type": "Point", "coordinates": [ -122.454175994, 37.781598822 ] } },
{ "type": "Feature", "properties": { "STREET1": "07TH ST", "STREET2": "TOWNSEND", "STREET3": null, "STREET4": null, "TSP_Type": "TSP,FIRE PREEMPT", "start_date": 2002, "data_as_of": "04/26/2023 03:24:48 PM", "owner": "SFMTA" }, "geometry": { "type": "Point", "coordinates": [ -122.401656681, 37.771817126 ] } },
{ "type": "Feature", "properties": { "STREET1": "BROOKDALE", "STREET2": "GENEVA", "STREET3": null, "STREET4": null, "TSP_Type": "TSP,FIRE PREEMPT", "start_date": 2019, "data_as_of": "04/26/2023 03:25:40 PM", "owner": "SFMTA" }, "geometry": { "type": "Point", "coordinates": [ -122.424550388, 37.71010186 ] } },
{ "type": "Feature", "properties": { "STREET1": "23RD AVE", "STREET2": "GEARY", "STREET3": null, "STREET4": null, "TSP_Type": "TSP,FIRE PREEMPT", "start_date": 1996, "data_as_of": "04/26/2023 03:24:48 PM", "owner": "SFMTA" }, "geometry": { "type": "Point", "coordinates": [ -122.482591528, 37.780189472 ] } },
{ "type": "Feature", "properties": { "STREET1": "MISSION", "STREET2": "OCEAN", "STREET3": null, "STREET4": null, "TSP_Type": "TSP,FIRE PREEMPT", "start_date": 0, "data_as_of": "04/26/2023 03:24:48 PM", "owner": "SFMTA" }, "geometry": { "type": "Point", "coordinates": [ -122.435385086, 37.723909403 ] } },
{ "type": "Feature", "properties": { "STREET1": "LAGUNA", "STREET2": "SUTTER", "STREET3": null, "STREET4": null, "TSP_Type": "TSP,FIRE PREEMPT", "start_date": 0, "data_as_of": "04/26/2023 03:24:48 PM", "owner": "SFMTA" }, "geometry": { "type": "Point", "coordinates": [ -122.428335613, 37.786712656 ] } },
{ "type": "Feature", "properties": { "STREET1": "04TH ST", "STREET2": "BRYANT", "STREET3": "US I-80 OFF RAMP", "STREET4": null, "TSP_Type": "TSP,FIRE PREEMPT", "start_date": 1998, "data_as_of": "04/26/2023 03:24:48 PM", "owner": "SFMTA" }, "geometry": { "type": "Point", "coordinates": [ -122.39805994, 37.779566911 ] } },
{ "type": "Feature", "properties": { "STREET1": "BAY", "STREET2": "STOCKTON", "STREET3": null, "STREET4": null, "TSP_Type": "TSP,FIRE PREEMPT", "start_date": 1997, "data_as_of": "04/26/2023 03:24:48 PM", "owner": "SFMTA" }, "geometry": { "type": "Point", "coordinates": [ -122.410310842, 37.806027718 ] } },
{ "type": "Feature", "properties": { "STREET1": "DON CHEE", "STREET2": "EMBARCADERO", "STREET3": null, "STREET4": null, "TSP_Type": "TSP", "start_date": 1999, "data_as_of": "04/26/2023 03:25:40 PM", "owner": "SFMTA" }, "geometry": { "type": "Point", "coordinates": [ -122.393337928, 37.794467798 ] } },
{ "type": "Feature", "properties": { "STREET1": "LEAVENWORTH", "STREET2": "WASHINGTON", "STREET3": null, "STREET4": null, "TSP_Type": "CABLE CAR PREEMPTION,FIRE PREEMPT", "start_date": 2020, "data_as_of": "04/26/2023 03:25:40 PM", "owner": "SFMTA" }, "geometry": { "type": "Point", "coordinates": [ -122.416291702, 37.793892084 ] } },
{ "type": "Feature", "properties": { "STREET1": "POTRERO", "STREET2": "MIDBLOCK AT", "STREET3": "22ND ST", "STREET4": "23RD ST", "TSP_Type": "TSP,FIRE PREEMPT", "start_date": 2017, "data_as_of": "04/26/2023 03:25:40 PM", "owner": "SFMTA" }, "geometry": { "type": "Point", "coordinates": [ -122.406558162, 37.755335006 ] } },
{ "type": "Feature", "properties": { "STREET1": "GENEVA", "STREET2": "MADRID", "STREET3": null, "STREET4": null, "TSP_Type": "TSP,FIRE PREEMPT", "start_date": 1999, "data_as_of": "04/26/2023 03:25:40 PM", "owner": "SFMTA" }, "geometry": { "type": "Point", "coordinates": [ -122.437805263, 37.714940049 ] } },
{ "type": "Feature", "properties": { "STREET1": "HAIGHT", "STREET2": "PIERCE", "STREET3": null, "STREET4": null, "TSP_Type": "TSP,FIRE PREEMPT", "start_date": 2021, "data_as_of": "04/26/2023 03:25:40 PM", "owner": "SFMTA" }, "geometry": { "type": "Point", "coordinates": [ -122.433734772, 37.771688274 ] } },
{ "type": "Feature", "properties": { "STREET1": "03RD ST", "STREET2": "GALVEZ", "STREET3": null, "STREET4": null, "TSP_Type": "TSP", "start_date": 2005, "data_as_of": "04/26/2023 03:24:48 PM", "owner": "SFMTA" }, "geometry": { "type": "Point", "coordinates": [ -122.388475894, 37.741107632 ] } },
{ "type": "Feature", "properties": { "STREET1": "03RD ST", "STREET2": "DONNER", "STREET3": null, "STREET4": null, "TSP_Type": "TSP,HEAVY RAIL PREEMPT", "start_date": 2005, "data_as_of": "04/26/2023 03:25:40 PM", "owner": "SFMTA" }, "geometry": { "type": "Point", "coordinates": [ -122.394532121, 37.724693137 ] } },
{ "type": "Feature", "properties": { "STREET1": "HAIGHT", "STREET2": "SHRADER", "STREET3": null, "STREET4": null, "TSP_Type": "TSP,FIRE PREEMPT", "start_date": 2021, "data_as_of": "04/26/2023 03:25:40 PM", "owner": "SFMTA" }, "geometry": { "type": "Point", "coordinates": [ -122.451865727, 37.769378664 ] } },
{ "type": "Feature", "properties": { "STREET1": "19TH AVE", "STREET2": "JUNIPERO SERRA", "STREET3": null, "STREET4": null, "TSP_Type": "TSP", "start_date": 2009, "data_as_of": "04/26/2023 03:24:48 PM", "owner": "Caltrans" }, "geometry": { "type": "Point", "coordinates": [ -122.472572455, 37.717173869 ] } },
{ "type": "Feature", "properties": { "STREET1": "19TH ST", "STREET2": "ILLINOIS", "STREET3": null, "STREET4": null, "TSP_Type": "TRANSIT PREEMPT", "start_date": 0, "data_as_of": "04/26/2023 03:25:40 PM", "owner": "SFMTA" }, "geometry": { "type": "Point", "coordinates": [ -122.387690005, 37.761826479 ] } },
{ "type": "Feature", "properties": { "STREET1": "03RD ST", "STREET2": "MISSION ROCK", "STREET3": null, "STREET4": null, "TSP_Type": "TSP,FIRE PREEMPT", "start_date": 2005, "data_as_of": "04/26/2023 03:24:48 PM", "owner": "SFMTA" }, "geometry": { "type": "Point", "coordinates": [ -122.389716741, 37.772930795 ] } },
{ "type": "Feature", "properties": { "STREET1": "POST", "STREET2": "TAYLOR", "STREET3": null, "STREET4": null, "TSP_Type": "TSP,FIRE PREEMPT", "start_date": 0, "data_as_of": "04/26/2023 03:24:48 PM", "owner": "SFMTA" }, "geometry": { "type": "Point", "coordinates": [ -122.411699232, 37.787872169 ] } },
{ "type": "Feature", "properties": { "STREET1": "06TH ST", "STREET2": "MISSION", "STREET3": null, "STREET4": null, "TSP_Type": "TSP,FIRE PREEMPT", "start_date": 2003, "data_as_of": "04/26/2023 03:24:48 PM", "owner": "SFMTA" }, "geometry": { "type": "Point", "coordinates": [ -122.408708673, 37.780971183 ] } },
{ "type": "Feature", "properties": { "STREET1": "HYDE", "STREET2": "SACRAMENTO", "STREET3": null, "STREET4": null, "TSP_Type": "CABLE CAR PREEMPTION,FIRE PREEMPT", "start_date": 2003, "data_as_of": "04/26/2023 03:24:48 PM", "owner": "SFMTA" }, "geometry": { "type": "Point", "coordinates": [ -122.417582222, 37.791922862 ] } },
{ "type": "Feature", "properties": { "STREET1": "GROVE", "STREET2": "VAN NESS", "STREET3": null, "STREET4": null, "TSP_Type": "TSP,FIRE PREEMPT", "start_date": 2021, "data_as_of": "04/26/2023 03:24:48 PM", "owner": "SFMTA" }, "geometry": { "type": "Point", "coordinates": [ -122.419883231, 37.778251018 ] } },
{ "type": "Feature", "properties": { "STREET1": "FILLMORE", "STREET2": "LOMBARD", "STREET3": null, "STREET4": null, "TSP_Type": "TSP,FIRE PREEMPT", "start_date": 0, "data_as_of": "04/26/2023 03:24:48 PM", "owner": "SFMTA" }, "geometry": { "type": "Point", "coordinates": [ -122.436046174, 37.799842953 ] } },
{ "type": "Feature", "properties": { "STREET1": "GRANT", "STREET2": "POST", "STREET3": null, "STREET4": null, "TSP_Type": "TSP,FIRE PREEMPT", "start_date": 0, "data_as_of": "04/26/2023 03:24:48 PM", "owner": "SFMTA" }, "geometry": { "type": "Point", "coordinates": [ -122.405221173, 37.788693992 ] } },
{ "type": "Feature", "properties": { "STREET1": "ASHBURY", "STREET2": "HAIGHT", "STREET3": null, "STREET4": null, "TSP_Type": "TSP,FIRE PREEMPT", "start_date": 1998, "data_as_of": "04/26/2023 03:24:48 PM", "owner": "SFMTA" }, "geometry": { "type": "Point", "coordinates": [ -122.446933819, 37.770007605 ] } },
{ "type": "Feature", "properties": { "STREET1": "08TH AVE", "STREET2": "CALIFORNIA", "STREET3": null, "STREET4": null, "TSP_Type": "TSP,FIRE PREEMPT", "start_date": 0, "data_as_of": "04/26/2023 03:24:48 PM", "owner": "SFMTA" }, "geometry": { "type": "Point", "coordinates": [ -122.466694443, 37.784715523 ] } },
{ "type": "Feature", "properties": { "STREET1": "MISSION", "STREET2": "SILVER", "STREET3": null, "STREET4": null, "TSP_Type": "TSP,FIRE PREEMPT", "start_date": 0, "data_as_of": "04/26/2023 03:24:48 PM", "owner": "SFMTA" }, "geometry": { "type": "Point", "coordinates": [ -122.431293843, 37.728729548 ] } },
{ "type": "Feature", "properties": { "STREET1": "CALIFORNIA", "STREET2": "DRUMM", "STREET3": null, "STREET4": null, "TSP_Type": "CABLE CAR PREEMPTION", "start_date": 0, "data_as_of": "04/26/2023 03:24:48 PM", "owner": "SFMTA" }, "geometry": { "type": "Point", "coordinates": [ -122.396390415, 37.793663778 ] } },
{ "type": "Feature", "properties": { "STREET1": "22ND ST WEST", "STREET2": "POTRERO", "STREET3": null, "STREET4": null, "TSP_Type": "TSP,FIRE PREEMPT", "start_date": 0, "data_as_of": "04/26/2023 03:25:40 PM", "owner": "SFMTA" }, "geometry": { "type": "Point", "coordinates": [ -122.406633693, 37.756166565 ] } },
{ "type": "Feature", "properties": { "STREET1": "EMBARCADERO", "STREET2": "FOLSOM", "STREET3": null, "STREET4": null, "TSP_Type": "TSP", "start_date": 1999, "data_as_of": "04/26/2023 03:24:48 PM", "owner": "SFMTA" }, "geometry": { "type": "Point", "coordinates": [ -122.39001378, 37.790826745 ] } },
{ "type": "Feature", "properties": { "STREET1": "COLUMBUS", "STREET2": "KEARNY", "STREET3": "PACIFIC", "STREET4": null, "TSP_Type": "TSP,FIRE PREEMPT", "start_date": 0, "data_as_of": "04/26/2023 03:25:40 PM", "owner": "SFMTA" }, "geometry": { "type": "Point", "coordinates": [ -122.405288397, 37.796909057 ] } },
{ "type": "Feature", "properties": { "STREET1": "30TH AVE", "STREET2": "FULTON", "STREET3": null, "STREET4": null, "TSP_Type": "TSP,FIRE PREEMPT", "start_date": 0, "data_as_of": "04/26/2023 03:24:48 PM", "owner": "SFMTA" }, "geometry": { "type": "Point", "coordinates": [ -122.489539481, 37.772325473 ] } },
{ "type": "Feature", "properties": { "STREET1": "CLAY", "STREET2": "GRANT", "STREET3": null, "STREET4": null, "TSP_Type": "TSP,FIRE PREEMPT", "start_date": 0, "data_as_of": "04/26/2023 03:24:48 PM", "owner": "SFMTA" }, "geometry": { "type": "Point", "coordinates": [ -122.406304986, 37.794263627 ] } },
{ "type": "Feature", "properties": { "STREET1": "CYRIL MAGNIN", "STREET2": "O'FARRELL", "STREET3": null, "STREET4": null, "TSP_Type": "TSP,FIRE PREEMPT", "start_date": 0, "data_as_of": "04/26/2023 03:24:48 PM", "owner": "SFMTA" }, "geometry": { "type": "Point", "coordinates": [ -122.408941028, 37.786295916 ] } },
{ "type": "Feature", "properties": { "STREET1": "16TH ST", "STREET2": "KANSAS", "STREET3": null, "STREET4": null, "TSP_Type": "TSP,FIRE PREEMPT", "start_date": 2002, "data_as_of": "04/26/2023 03:25:40 PM", "owner": "SFMTA" }, "geometry": { "type": "Point", "coordinates": [ -122.403642967, 37.766016816 ] } },
{ "type": "Feature", "properties": { "STREET1": "JACKSON", "STREET2": "VAN NESS", "STREET3": null, "STREET4": null, "TSP_Type": "TSP,FIRE PREEMPT", "start_date": 2021, "data_as_of": "04/26/2023 03:24:48 PM", "owner": "SFMTA" }, "geometry": { "type": "Point", "coordinates": [ -122.423048804, 37.793935005 ] } },
{ "type": "Feature", "properties": { "STREET1": "EMBARCADERO", "STREET2": "HARRISON", "STREET3": null, "STREET4": null, "TSP_Type": "TSP,FIRE PREEMPT", "start_date": 1997, "data_as_of": "04/26/2023 03:24:48 PM", "owner": "SFMTA" }, "geometry": { "type": "Point", "coordinates": [ -122.388481475, 37.789571246 ] } },
{ "type": "Feature", "properties": { "STREET1": "02ND AVE", "STREET2": "GEARY", "STREET3": null, "STREET4": null, "TSP_Type": "TSP,FIRE PREEMPT", "start_date": 2004, "data_as_of": "04/26/2023 03:24:48 PM", "owner": "SFMTA" }, "geometry": { "type": "Point", "coordinates": [ -122.459999658, 37.781213478 ] } },
{ "type": "Feature", "properties": { "STREET1": "DOLORES", "STREET2": "RANDALL", "STREET3": "SAN JOSE", "STREET4": null, "TSP_Type": "TRANSIT PREEMPT", "start_date": 0, "data_as_of": "04/26/2023 03:24:48 PM", "owner": "SFMTA" }, "geometry": { "type": "Point", "coordinates": [ -122.424147155, 37.73986923 ] } },
{ "type": "Feature", "properties": { "STREET1": "03RD ST", "STREET2": "BURKE", "STREET3": null, "STREET4": null, "TSP_Type": "TSP,HEAVY RAIL PREEMPT", "start_date": 2005, "data_as_of": "04/26/2023 03:24:48 PM", "owner": "SFMTA" }, "geometry": { "type": "Point", "coordinates": [ -122.387128522, 37.74507044 ] } },
{ "type": "Feature", "properties": { "STREET1": "11TH ST", "STREET2": "HOWARD", "STREET3": null, "STREET4": null, "TSP_Type": "TSP,FIRE PREEMPT", "start_date": 1999, "data_as_of": "04/26/2023 03:24:48 PM", "owner": "SFMTA" }, "geometry": { "type": "Point", "coordinates": [ -122.41556139, 37.773100588 ] } },
{ "type": "Feature", "properties": { "STREET1": "03RD ST", "STREET2": "INNES", "STREET3": "NEWHALL", "STREET4": null, "TSP_Type": "TSP", "start_date": 2005, "data_as_of": "04/26/2023 03:24:48 PM", "owner": "SFMTA" }, "geometry": { "type": "Point", "coordinates": [ -122.389030967, 37.739533449 ] } },
{ "type": "Feature", "properties": { "STREET1": "FILLMORE", "STREET2": "O'FARRELL", "STREET3": null, "STREET4": null, "TSP_Type": "TSP,FIRE PREEMPT", "start_date": 2018, "data_as_of": "04/26/2023 03:25:40 PM", "owner": "SFMTA" }, "geometry": { "type": "Point", "coordinates": [ -122.43270618, 37.783292592 ] } },
{ "type": "Feature", "properties": { "STREET1": "03RD ST", "STREET2": "18TH ST", "STREET3": null, "STREET4": null, "TSP_Type": "TSP,FIRE PREEMPT", "start_date": 2004, "data_as_of": "04/26/2023 03:24:48 PM", "owner": "SFMTA" }, "geometry": { "type": "Point", "coordinates": [ -122.388737999, 37.763048279 ] } },
{ "type": "Feature", "properties": { "STREET1": "30TH ST", "STREET2": "EUGENIA", "STREET3": "MISSION", "STREET4": null, "TSP_Type": "TSP,FIRE PREEMPT", "start_date": 1999, "data_as_of": "04/26/2023 03:24:48 PM", "owner": "SFMTA" }, "geometry": { "type": "Point", "coordinates": [ -122.421968762, 37.742375398 ] } },
{ "type": "Feature", "properties": { "STREET1": "21ST ST", "STREET2": "MISSION", "STREET3": null, "STREET4": null, "TSP_Type": "TSP,FIRE PREEMPT", "start_date": 2007, "data_as_of": "04/26/2023 03:25:40 PM", "owner": "SFMTA" }, "geometry": { "type": "Point", "coordinates": [ -122.418901029, 37.757035402 ] } },
{ "type": "Feature", "properties": { "STREET1": "MARIPOSA", "STREET2": "POTRERO", "STREET3": null, "STREET4": null, "TSP_Type": "TSP,FIRE PREEMPT", "start_date": 0, "data_as_of": "04/26/2023 03:24:48 PM", "owner": "SFMTA" }, "geometry": { "type": "Point", "coordinates": [ -122.407304848, 37.763187802 ] } },
{ "type": "Feature", "properties": { "STREET1": "MISSION", "STREET2": "SANTA ROSA", "STREET3": null, "STREET4": null, "TSP_Type": "TSP,FIRE PREEMPT", "start_date": 2009, "data_as_of": "04/26/2023 03:25:40 PM", "owner": "SFMTA" }, "geometry": { "type": "Point", "coordinates": [ -122.433982356, 37.72576179 ] } },
{ "type": "Feature", "properties": { "STREET1": "CHESTNUT", "STREET2": "EMBARCADERO", "STREET3": "SANSOME", "STREET4": null, "TSP_Type": "TSP", "start_date": 1996, "data_as_of": "04/26/2023 03:24:48 PM", "owner": "SFMTA" }, "geometry": { "type": "Point", "coordinates": [ -122.40343584, 37.805184854 ] } },
{ "type": "Feature", "properties": { "STREET1": "ESSEX", "STREET2": "HARRISON", "STREET3": "US I-80 ON RAMP", "STREET4": null, "TSP_Type": "ACTUATED TRANSIT PHASE", "start_date": 1999, "data_as_of": "04/26/2023 03:24:48 PM", "owner": "SFMTA" }, "geometry": { "type": "Point", "coordinates": [ -122.394099272, 37.785149309 ] } },
{ "type": "Feature", "properties": { "STREET1": "HYDE", "STREET2": "SUTTER", "STREET3": null, "STREET4": null, "TSP_Type": "TSP,FIRE PREEMPT", "start_date": 0, "data_as_of": "04/26/2023 03:24:48 PM", "owner": "SFMTA" }, "geometry": { "type": "Point", "coordinates": [ -122.416827154, 37.788177891 ] } },
{ "type": "Feature", "properties": { "STREET1": "BRODERICK", "STREET2": "LOMBARD", "STREET3": "RICHARDSON", "STREET4": null, "TSP_Type": "TSP,FIRE PREEMPT", "start_date": 0, "data_as_of": "04/26/2023 03:25:40 PM", "owner": "SFMTA" }, "geometry": { "type": "Point", "coordinates": [ -122.444318619, 37.798790246 ] } },
{ "type": "Feature", "properties": { "STREET1": "GEARY", "STREET2": "POLK", "STREET3": null, "STREET4": null, "TSP_Type": "TSP,FIRE PREEMPT", "start_date": 0, "data_as_of": "04/26/2023 03:24:48 PM", "owner": "SFMTA" }, "geometry": { "type": "Point", "coordinates": [ -122.419738734, 37.785892901 ] } },
{ "type": "Feature", "properties": { "STREET1": "12TH ST", "STREET2": "MISSION", "STREET3": "OTIS", "STREET4": "SOUTH VAN NESS", "TSP_Type": "FIRE PREEMPT,TRANSIT PREEMPT", "start_date": 2021, "data_as_of": "04/26/2023 03:24:48 PM", "owner": "Caltrans" }, "geometry": { "type": "Point", "coordinates": [ -122.418618216, 37.773053454 ] } },
{ "type": "Feature", "properties": { "STREET1": "23RD ST", "STREET2": "POTRERO", "STREET3": null, "STREET4": null, "TSP_Type": "TSP,FIRE PREEMPT", "start_date": 0, "data_as_of": "04/26/2023 03:24:48 PM", "owner": "SFMTA" }, "geometry": { "type": "Point", "coordinates": [ -122.406480459, 37.754564212 ] } },
{ "type": "Feature", "properties": { "STREET1": "GENEVA", "STREET2": "NAPLES", "STREET3": null, "STREET4": null, "TSP_Type": "TSP,FIRE PREEMPT", "start_date": 0, "data_as_of": "04/26/2023 03:24:48 PM", "owner": "SFMTA" }, "geometry": { "type": "Point", "coordinates": [ -122.436176465, 37.714209483 ] } },
{ "type": "Feature", "properties": { "STREET1": "03RD ST", "STREET2": "FITZGERALD", "STREET3": null, "STREET4": null, "TSP_Type": "TSP", "start_date": 2005, "data_as_of": "04/26/2023 03:24:48 PM", "owner": "SFMTA" }, "geometry": { "type": "Point", "coordinates": [ -122.395264647, 37.723222335 ] } },
{ "type": "Feature", "properties": { "STREET1": "09TH ST", "STREET2": "HARRISON", "STREET3": null, "STREET4": null, "TSP_Type": "TSP,FIRE PREEMPT", "start_date": 1999, "data_as_of": "04/26/2023 03:24:48 PM", "owner": "SFMTA" }, "geometry": { "type": "Point", "coordinates": [ -122.410076848, 37.772526444 ] } },
{ "type": "Feature", "properties": { "STREET1": "BAYSHORE", "STREET2": "CORTLAND", "STREET3": null, "STREET4": null, "TSP_Type": "TSP,FIRE PREEMPT", "start_date": 2010, "data_as_of": "04/26/2023 03:24:48 PM", "owner": "SFMTA" }, "geometry": { "type": "Point", "coordinates": [ -122.406978586, 37.739566273 ] } },
{ "type": "Feature", "properties": { "STREET1": "08TH AVE", "STREET2": "GEARY", "STREET3": null, "STREET4": null, "TSP_Type": "TSP,FIRE PREEMPT", "start_date": 2004, "data_as_of": "04/26/2023 03:24:48 PM", "owner": "SFMTA" }, "geometry": { "type": "Point", "coordinates": [ -122.466426902, 37.780924587 ] } },
{ "type": "Feature", "properties": { "STREET1": "FULTON", "STREET2": "PARKER", "STREET3": "SHRADER", "STREET4": null, "TSP_Type": "TSP,FIRE PREEMPT", "start_date": 0, "data_as_of": "04/26/2023 03:25:40 PM", "owner": "SFMTA" }, "geometry": { "type": "Point", "coordinates": [ -122.452810237, 37.774995319 ] } },
{ "type": "Feature", "properties": { "STREET1": "HYDE", "STREET2": "PACIFIC", "STREET3": null, "STREET4": null, "TSP_Type": "CABLE CAR PREEMPTION", "start_date": 0, "data_as_of": "04/26/2023 03:24:48 PM", "owner": "SFMTA" }, "geometry": { "type": "Point", "coordinates": [ -122.418293499, 37.795463585 ] } },
{ "type": "Feature", "properties": { "STREET1": "GEARY", "STREET2": "TAYLOR", "STREET3": null, "STREET4": null, "TSP_Type": "TSP,FIRE PREEMPT", "start_date": 0, "data_as_of": "04/26/2023 03:24:48 PM", "owner": "SFMTA" }, "geometry": { "type": "Point", "coordinates": [ -122.411515767, 37.786939707 ] } },
{ "type": "Feature", "properties": { "STREET1": "GEARY", "STREET2": "PALM", "STREET3": null, "STREET4": null, "TSP_Type": "TSP,FIRE PREEMPT", "start_date": 2014, "data_as_of": "04/26/2023 03:25:40 PM", "owner": "SFMTA" }, "geometry": { "type": "Point", "coordinates": [ -122.457733044, 37.781314586 ] } },
{ "type": "Feature", "properties": { "STREET1": "CHESTNUT", "STREET2": "FILLMORE", "STREET3": null, "STREET4": null, "TSP_Type": "TSP,FIRE PREEMPT", "start_date": 2017, "data_as_of": "04/26/2023 03:24:48 PM", "owner": "SFMTA" }, "geometry": { "type": "Point", "coordinates": [ -122.43627391, 37.800814144 ] } },
{ "type": "Feature", "properties": { "STREET1": "CLAYTON", "STREET2": "MARKET", "STREET3": null, "STREET4": null, "TSP_Type": "TRANSIT PREEMPT", "start_date": 2018, "data_as_of": "04/26/2023 03:24:48 PM", "owner": "SFMTA" }, "geometry": { "type": "Point", "coordinates": [ -122.443782167, 37.758192867 ] } },
{ "type": "Feature", "properties": { "STREET1": "10TH AVE", "STREET2": "FULTON", "STREET3": null, "STREET4": null, "TSP_Type": "TSP,FIRE PREEMPT", "start_date": 2005, "data_as_of": "04/26/2023 03:24:48 PM", "owner": "SFMTA" }, "geometry": { "type": "Point", "coordinates": [ -122.468023916, 37.773303834 ] } },
{ "type": "Feature", "properties": { "STREET1": "CALIFORNIA", "STREET2": "STOCKTON", "STREET3": null, "STREET4": null, "TSP_Type": "CABLE CAR PREEMPTION", "start_date": 2008, "data_as_of": "04/26/2023 03:25:40 PM", "owner": "SFMTA" }, "geometry": { "type": "Point", "coordinates": [ -122.40753604, 37.792249006 ] } },
{ "type": "Feature", "properties": { "STREET1": "CHESTNUT", "STREET2": "VAN NESS", "STREET3": null, "STREET4": null, "TSP_Type": "TSP,FIRE PREEMPT", "start_date": 2021, "data_as_of": "04/26/2023 03:24:48 PM", "owner": "SFMTA" }, "geometry": { "type": "Point", "coordinates": [ -122.424731259, 37.802280983 ] } },
{ "type": "Feature", "properties": { "STREET1": "03RD ST", "STREET2": "BAYVIEW", "STREET3": "REVERE", "STREET4": null, "TSP_Type": "TSP", "start_date": 2005, "data_as_of": "04/26/2023 03:24:48 PM", "owner": "SFMTA" }, "geometry": { "type": "Point", "coordinates": [ -122.391521351, 37.732431908 ] } },
{ "type": "Feature", "properties": { "STREET1": "FILLMORE", "STREET2": "GOLDEN GATE", "STREET3": null, "STREET4": null, "TSP_Type": "TSP,FIRE PREEMPT", "start_date": 0, "data_as_of": "04/26/2023 03:24:48 PM", "owner": "SFMTA" }, "geometry": { "type": "Point", "coordinates": [ -122.431951802, 37.779564149 ] } },
{ "type": "Feature", "properties": { "STREET1": "CLAY", "STREET2": "MONTGOMERY", "STREET3": null, "STREET4": null, "TSP_Type": "TSP,FIRE PREEMPT", "start_date": 0, "data_as_of": "04/26/2023 03:24:48 PM", "owner": "SFMTA" }, "geometry": { "type": "Point", "coordinates": [ -122.403139295, 37.794666282 ] } },
{ "type": "Feature", "properties": { "STREET1": "FAIR", "STREET2": "MISSION", "STREET3": "VALENCIA", "STREET4": null, "TSP_Type": "TSP,FIRE PREEMPT", "start_date": 1999, "data_as_of": "04/26/2023 03:24:48 PM", "owner": "SFMTA" }, "geometry": { "type": "Point", "coordinates": [ -122.419885764, 37.745595097 ] } },
{ "type": "Feature", "properties": { "STREET1": "04TH AVE", "STREET2": "CALIFORNIA", "STREET3": null, "STREET4": null, "TSP_Type": "TSP,FIRE PREEMPT", "start_date": 2005, "data_as_of": "04/26/2023 03:25:40 PM", "owner": "SFMTA" }, "geometry": { "type": "Point", "coordinates": [ -122.462441447, 37.785266061 ] } },
{ "type": "Feature", "properties": { "STREET1": "CALIFORNIA", "STREET2": "LYON", "STREET3": null, "STREET4": null, "TSP_Type": "TSP,FIRE PREEMPT", "start_date": 2008, "data_as_of": "04/26/2023 03:25:40 PM", "owner": "SFMTA" }, "geometry": { "type": "Point", "coordinates": [ -122.445402198, 37.787438165 ] } },
{ "type": "Feature", "properties": { "STREET1": "16TH ST", "STREET2": "BRYANT", "STREET3": null, "STREET4": null, "TSP_Type": "TSP,FIRE PREEMPT", "start_date": 2009, "data_as_of": "04/26/2023 03:24:48 PM", "owner": "SFMTA" }, "geometry": { "type": "Point", "coordinates": [ -122.410486689, 37.765605838 ] } },
{ "type": "Feature", "properties": { "STREET1": "03RD ST", "STREET2": "UNDERWOOD", "STREET3": null, "STREET4": null, "TSP_Type": "TSP", "start_date": 2005, "data_as_of": "04/26/2023 03:24:48 PM", "owner": "SFMTA" }, "geometry": { "type": "Point", "coordinates": [ -122.392348748, 37.730066819 ] } },
{ "type": "Feature", "properties": { "STREET1": "POLK", "STREET2": "SACRAMENTO", "STREET3": null, "STREET4": null, "TSP_Type": "TSP,FIRE PREEMPT", "start_date": 2017, "data_as_of": "04/26/2023 03:24:48 PM", "owner": "SFMTA" }, "geometry": { "type": "Point", "coordinates": [ -122.420873184, 37.791495855 ] } },
{ "type": "Feature", "properties": { "STREET1": "15TH ST", "STREET2": "CHURCH", "STREET3": null, "STREET4": null, "TSP_Type": "FIRE PREEMPT,TRANSIT PREEMPT", "start_date": 1996, "data_as_of": "04/26/2023 03:24:48 PM", "owner": "SFMTA" }, "geometry": { "type": "Point", "coordinates": [ -122.428819147, 37.766130013 ] } },
{ "type": "Feature", "properties": { "STREET1": "CAYUGA", "STREET2": "GENEVA", "STREET3": null, "STREET4": null, "TSP_Type": "TSP,FIRE PREEMPT", "start_date": 2016, "data_as_of": "04/26/2023 03:25:40 PM", "owner": "SFMTA" }, "geometry": { "type": "Point", "coordinates": [ -122.443696073, 37.718928672 ] } },
{ "type": "Feature", "properties": { "STREET1": "CLAY", "STREET2": "VAN NESS", "STREET3": null, "STREET4": null, "TSP_Type": "TSP,FIRE PREEMPT,TRANSIT PREEMPT", "start_date": 2021, "data_as_of": "04/26/2023 03:24:48 PM", "owner": "SFMTA" }, "geometry": { "type": "Point", "coordinates": [ -122.422694164, 37.792174645 ] } },
{ "type": "Feature", "properties": { "STREET1": "10TH AVE", "STREET2": "CALIFORNIA", "STREET3": null, "STREET4": null, "TSP_Type": "TSP,FIRE PREEMPT", "start_date": 2004, "data_as_of": "04/26/2023 03:24:48 PM", "owner": "SFMTA" }, "geometry": { "type": "Point", "coordinates": [ -122.468839739, 37.784620906 ] } },
{ "type": "Feature", "properties": { "STREET1": "FILBERT", "STREET2": "VAN NESS", "STREET3": null, "STREET4": null, "TSP_Type": "TSP,FIRE PREEMPT,TRANSIT PREEMPT", "start_date": 2021, "data_as_of": "04/26/2023 03:24:48 PM", "owner": "SFMTA" }, "geometry": { "type": "Point", "coordinates": [ -122.424170564, 37.799484533 ] } },
{ "type": "Feature", "properties": { "STREET1": "19TH AVE", "STREET2": "VICENTE", "STREET3": null, "STREET4": null, "TSP_Type": "TSP,FIRE PREEMPT", "start_date": 2008, "data_as_of": "04/26/2023 03:24:48 PM", "owner": "SFMTA" }, "geometry": { "type": "Point", "coordinates": [ -122.475409075, 37.739325433 ] } },
{ "type": "Feature", "properties": { "STREET1": "BEACH", "STREET2": "TAYLOR", "STREET3": null, "STREET4": null, "TSP_Type": "TRANSIT PREEMPT", "start_date": 1998, "data_as_of": "04/26/2023 03:24:48 PM", "owner": "SFMTA" }, "geometry": { "type": "Point", "coordinates": [ -122.415616436, 37.80727587 ] } },
{ "type": "Feature", "properties": { "STREET1": "16TH AVE", "STREET2": "GEARY", "STREET3": null, "STREET4": null, "TSP_Type": "TSP,FIRE PREEMPT", "start_date": 0, "data_as_of": "04/26/2023 03:24:48 PM", "owner": "SFMTA" }, "geometry": { "type": "Point", "coordinates": [ -122.475083581, 37.780528535 ] } },
{ "type": "Feature", "properties": { "STREET1": "UNION", "STREET2": "VAN NESS", "STREET3": null, "STREET4": null, "TSP_Type": "FIRE PREEMPT,TRANSIT PREEMPT", "start_date": 2021, "data_as_of": "04/26/2023 03:24:48 PM", "owner": "SFMTA" }, "geometry": { "type": "Point", "coordinates": [ -122.423982145, 37.798552454 ] } },
{ "type": "Feature", "properties": { "STREET1": "CLAY", "STREET2": "POWELL", "STREET3": null, "STREET4": null, "TSP_Type": "TSP,CABLE CAR PREEMPT", "start_date": 1996, "data_as_of": "04/26/2023 03:24:48 PM", "owner": "SFMTA" }, "geometry": { "type": "Point", "coordinates": [ -122.409541048, 37.793851929 ] } },
{ "type": "Feature", "properties": { "STREET1": "FOLSOM", "STREET2": "RUSS", "STREET3": null, "STREET4": null, "TSP_Type": "TSP,FIRE PREEMPT", "start_date": 2012, "data_as_of": "04/26/2023 03:25:40 PM", "owner": "SFMTA" }, "geometry": { "type": "Point", "coordinates": [ -122.40672447, 37.777628934 ] } },
{ "type": "Feature", "properties": { "STREET1": "18TH ST", "STREET2": "CHURCH", "STREET3": null, "STREET4": null, "TSP_Type": "TRANSIT PREEMPT", "start_date": 2018, "data_as_of": "04/26/2023 03:24:48 PM", "owner": "SFMTA" }, "geometry": { "type": "Point", "coordinates": [ -122.428354065, 37.761289573 ] } },
{ "type": "Feature", "properties": { "STREET1": "BAKER", "STREET2": "CALIFORNIA", "STREET3": null, "STREET4": null, "TSP_Type": "TSP,FIRE PREEMPT", "start_date": 0, "data_as_of": "04/26/2023 03:24:48 PM", "owner": "SFMTA" }, "geometry": { "type": "Point", "coordinates": [ -122.443753266, 37.78764721 ] } },
{ "type": "Feature", "properties": { "STREET1": "03RD ST", "STREET2": "CHANNEL", "STREET3": null, "STREET4": null, "TSP_Type": "TSP,ACTUATED TRANSIT PHASE,TRANSIT PREEMPT", "start_date": 2005, "data_as_of": "04/26/2023 03:25:40 PM", "owner": "SFMTA" }, "geometry": { "type": "Point", "coordinates": [ -122.389865004, 37.774551172 ] } },
{ "type": "Feature", "properties": { "STREET1": "BUCHANAN", "STREET2": "DUBOCE", "STREET3": "MARKET", "STREET4": null, "TSP_Type": "TRANSIT PREEMPT", "start_date": 0, "data_as_of": "04/26/2023 03:24:48 PM", "owner": "SFMTA" }, "geometry": { "type": "Point", "coordinates": [ -122.426309439, 37.769602597 ] } },
{ "type": "Feature", "properties": { "STREET1": "03RD ST", "STREET2": "NEWCOMB", "STREET3": null, "STREET4": null, "TSP_Type": "TSP", "start_date": 2005, "data_as_of": "04/26/2023 03:24:48 PM", "owner": "SFMTA" }, "geometry": { "type": "Point", "coordinates": [ -122.390416264, 37.735590521 ] } },
{ "type": "Feature", "properties": { "STREET1": "GEARY", "STREET2": "JONES", "STREET3": null, "STREET4": null, "TSP_Type": "TSP,FIRE PREEMPT", "start_date": 0, "data_as_of": "04/26/2023 03:24:48 PM", "owner": "SFMTA" }, "geometry": { "type": "Point", "coordinates": [ -122.413161444, 37.786729745 ] } },
{ "type": "Feature", "properties": { "STREET1": "CLAYTON", "STREET2": "HAIGHT", "STREET3": null, "STREET4": null, "TSP_Type": "TSP,FIRE PREEMPT", "start_date": 2021, "data_as_of": "04/26/2023 03:25:40 PM", "owner": "SFMTA" }, "geometry": { "type": "Point", "coordinates": [ -122.448578816, 37.769797851 ] } },
{ "type": "Feature", "properties": { "STREET1": "BAYSHORE", "STREET2": "OAKDALE", "STREET3": null, "STREET4": null, "TSP_Type": "TSP,FIRE PREEMPT", "start_date": 0, "data_as_of": "04/26/2023 03:24:48 PM", "owner": "SFMTA" }, "geometry": { "type": "Point", "coordinates": [ -122.405242387, 37.743051205 ] } },
{ "type": "Feature", "properties": { "STREET1": "GENEVA", "STREET2": "SAN JOSE", "STREET3": null, "STREET4": null, "TSP_Type": "FIRE PREEMPT,TRANSIT PREEMPT", "start_date": 0, "data_as_of": "04/26/2023 03:24:48 PM", "owner": "SFMTA" }, "geometry": { "type": "Point", "coordinates": [ -122.446608651, 37.720724224 ] } },
{ "type": "Feature", "properties": { "STREET1": "03RD ST", "STREET2": "BERRY", "STREET3": null, "STREET4": null, "TSP_Type": "BRIDGE PREEMPT", "start_date": 1999, "data_as_of": "04/26/2023 03:24:48 PM", "owner": "SFMTA" }, "geometry": { "type": "Point", "coordinates": [ -122.39110724, 37.777542689 ] } },
{ "type": "Feature", "properties": { "STREET1": "19TH AVE", "STREET2": "NORIEGA", "STREET3": null, "STREET4": null, "TSP_Type": "TSP,FIRE PREEMPT", "start_date": 2009, "data_as_of": "04/26/2023 03:24:48 PM", "owner": "SFMTA" }, "geometry": { "type": "Point", "coordinates": [ -122.476423522, 37.754242188 ] } },
{ "type": "Feature", "properties": { "STREET1": "CLAY", "STREET2": "SANSOME", "STREET3": null, "STREET4": null, "TSP_Type": "TSP,FIRE PREEMPT", "start_date": 0, "data_as_of": "04/26/2023 03:24:48 PM", "owner": "SFMTA" }, "geometry": { "type": "Point", "coordinates": [ -122.401487581, 37.794839499 ] } },
{ "type": "Feature", "properties": { "STREET1": "03RD ST", "STREET2": "ARTHUR", "STREET3": "CARGO", "STREET4": null, "TSP_Type": "HEAVY RAIL,FIRE,BRIDGE, TRANSIT PREEMPT", "start_date": 2006, "data_as_of": "04/26/2023 03:24:48 PM", "owner": "SFMTA" }, "geometry": { "type": "Point", "coordinates": [ -122.387174218, 37.746157128 ] } },
{ "type": "Feature", "properties": { "STREET1": "MISSION", "STREET2": "VIRGINIA", "STREET3": null, "STREET4": null, "TSP_Type": "TSP,FIRE PREEMPT", "start_date": 1999, "data_as_of": "04/26/2023 03:24:48 PM", "owner": "SFMTA" }, "geometry": { "type": "Point", "coordinates": [ -122.421485451, 37.743122664 ] } },
{ "type": "Feature", "properties": { "STREET1": "BEALE", "STREET2": "DAVIS", "STREET3": "MARKET", "STREET4": "PINE", "TSP_Type": "TSP,FIRE PREEMPT", "start_date": 0, "data_as_of": "04/26/2023 03:24:48 PM", "owner": "SFMTA" }, "geometry": { "type": "Point", "coordinates": [ -122.397383446, 37.792405521 ] } },
{ "type": "Feature", "properties": { "STREET1": "JEFFERSON", "STREET2": "TAYLOR", "STREET3": null, "STREET4": null, "TSP_Type": "TSP", "start_date": 1998, "data_as_of": "04/26/2023 03:25:40 PM", "owner": "SFMTA" }, "geometry": { "type": "Point", "coordinates": [ -122.415802425, 37.808214054 ] } },
{ "type": "Feature", "properties": { "STREET1": "GEARY", "STREET2": "GRANT", "STREET3": null, "STREET4": null, "TSP_Type": "TSP,FIRE PREEMPT", "start_date": 0, "data_as_of": "04/26/2023 03:24:48 PM", "owner": "SFMTA" }, "geometry": { "type": "Point", "coordinates": [ -122.405041398, 37.787765496 ] } },
{ "type": "Feature", "properties": { "STREET1": "ARGUELLO", "STREET2": "CALIFORNIA", "STREET3": null, "STREET4": null, "TSP_Type": "TSP,FIRE PREEMPT", "start_date": 2019, "data_as_of": "04/26/2023 03:24:48 PM", "owner": "SFMTA" }, "geometry": { "type": "Point", "coordinates": [ -122.459178766, 37.785681692 ] } },
{ "type": "Feature", "properties": { "STREET1": "VICENTE", "STREET2": "WEST PORTAL", "STREET3": null, "STREET4": null, "TSP_Type": "TSP", "start_date": 1996, "data_as_of": "04/26/2023 03:24:48 PM", "owner": "SFMTA" }, "geometry": { "type": "Point", "coordinates": [ -122.466991014, 37.7397235 ] } },
{ "type": "Feature", "properties": { "STREET1": "04TH ST", "STREET2": "KING", "STREET3": null, "STREET4": null, "TSP_Type": "TSP,TRANSIT PREEMPT", "start_date": 2004, "data_as_of": "04/26/2023 03:24:48 PM", "owner": "SFMTA" }, "geometry": { "type": "Point", "coordinates": [ -122.39403507, 37.776332923 ] } },
{ "type": "Feature", "properties": { "STREET1": "16TH ST", "STREET2": "MISSION", "STREET3": null, "STREET4": null, "TSP_Type": "TSP,FIRE PREEMPT", "start_date": 1999, "data_as_of": "04/26/2023 03:24:48 PM", "owner": "SFMTA" }, "geometry": { "type": "Point", "coordinates": [ -122.419668973, 37.765051337 ] } },
{ "type": "Feature", "properties": { "STREET1": "GENEVA", "STREET2": "PARIS", "STREET3": null, "STREET4": null, "TSP_Type": "TSP,FIRE PREEMPT", "start_date": 1999, "data_as_of": "04/26/2023 03:24:48 PM", "owner": "SFMTA" }, "geometry": { "type": "Point", "coordinates": [ -122.439438472, 37.715672555 ] } },
{ "type": "Feature", "properties": { "STREET1": "08TH ST", "STREET2": "HOWARD", "STREET3": null, "STREET4": null, "TSP_Type": "TSP,FIRE PREEMPT", "start_date": 1999, "data_as_of": "04/26/2023 03:24:48 PM", "owner": "SFMTA" }, "geometry": { "type": "Point", "coordinates": [ -122.411606113, 37.776221356 ] } },
{ "type": "Feature", "properties": { "STREET1": "POST", "STREET2": "POWELL", "STREET3": null, "STREET4": null, "TSP_Type": "TSP,FIRE PREEMPT", "start_date": 0, "data_as_of": "04/26/2023 03:24:48 PM", "owner": "SFMTA" }, "geometry": { "type": "Point", "coordinates": [ -122.40840155, 37.788293194 ] } },
{ "type": "Feature", "properties": { "STREET1": "EMBARCADERO", "STREET2": "MIDBLOCK AT", "STREET3": "PIER 23", "STREET4": null, "TSP_Type": "TSP", "start_date": 1995, "data_as_of": "04/26/2023 03:25:40 PM", "owner": "SFMTA" }, "geometry": { "type": "Point", "coordinates": [ -122.400871442, 37.802964409 ] } },
{ "type": "Feature", "properties": { "STREET1": "MASON", "STREET2": "PACIFIC", "STREET3": null, "STREET4": null, "TSP_Type": "CABLE CAR PREEMPTION", "start_date": 2009, "data_as_of": "04/26/2023 03:24:48 PM", "owner": "SFMTA" }, "geometry": { "type": "Point", "coordinates": [ -122.411718938, 37.796290765 ] } },
{ "type": "Feature", "properties": { "STREET1": "03RD ST", "STREET2": "CARROLL", "STREET3": null, "STREET4": null, "TSP_Type": "TSP,HEAVY RAIL PREEMPT", "start_date": 2005, "data_as_of": "04/26/2023 03:24:48 PM", "owner": "SFMTA" }, "geometry": { "type": "Point", "coordinates": [ -122.394243493, 37.72547565 ] } },
{ "type": "Feature", "properties": { "STREET1": "GENEVA", "STREET2": "PRAGUE", "STREET3": null, "STREET4": null, "TSP_Type": "TSP,FIRE PREEMPT", "start_date": 0, "data_as_of": "04/26/2023 03:24:48 PM", "owner": "SFMTA" }, "geometry": { "type": "Point", "coordinates": [ -122.431927236, 37.712766596 ] } },
{ "type": "Feature", "properties": { "STREET1": "HAIGHT", "STREET2": "SCOTT", "STREET3": null, "STREET4": null, "TSP_Type": "TSP,FIRE PREEMPT", "start_date": 2021, "data_as_of": "04/26/2023 03:25:40 PM", "owner": "SFMTA" }, "geometry": { "type": "Point", "coordinates": [ -122.435372983, 37.771479485 ] } },
{ "type": "Feature", "properties": { "STREET1": "FELL", "STREET2": "VAN NESS", "STREET3": null, "STREET4": null, "TSP_Type": "TSP,FIRE PREEMPT", "start_date": 2021, "data_as_of": "04/26/2023 03:24:48 PM", "owner": "SFMTA" }, "geometry": { "type": "Point", "coordinates": [ -122.419506294, 37.77636887 ] } },
{ "type": "Feature", "properties": { "STREET1": "26TH ST", "STREET2": "MISSION", "STREET3": null, "STREET4": null, "TSP_Type": "TSP,FIRE PREEMPT", "start_date": 2007, "data_as_of": "04/26/2023 03:24:48 PM", "owner": "SFMTA" }, "geometry": { "type": "Point", "coordinates": [ -122.418135252, 37.749041287 ] } },
{ "type": "Feature", "properties": { "STREET1": "CLAY", "STREET2": "POLK", "STREET3": null, "STREET4": null, "TSP_Type": "TSP,FIRE PREEMPT", "start_date": 2017, "data_as_of": "04/26/2023 03:24:48 PM", "owner": "SFMTA" }, "geometry": { "type": "Point", "coordinates": [ -122.421052874, 37.792383253 ] } },
{ "type": "Feature", "properties": { "STREET1": "CLAY", "STREET2": "STOCKTON", "STREET3": null, "STREET4": null, "TSP_Type": "TSP,FIRE PREEMPT", "start_date": 0, "data_as_of": "04/26/2023 03:24:48 PM", "owner": "SFMTA" }, "geometry": { "type": "Point", "coordinates": [ -122.407903302, 37.794060297 ] } },
{ "type": "Feature", "properties": { "STREET1": "03RD ST", "STREET2": "24TH ST", "STREET3": null, "STREET4": null, "TSP_Type": "TSP", "start_date": 2005, "data_as_of": "04/26/2023 03:24:48 PM", "owner": "SFMTA" }, "geometry": { "type": "Point", "coordinates": [ -122.387878641, 37.754112146 ] } },
{ "type": "Feature", "properties": { "STREET1": "06TH AVE", "STREET2": "FULTON", "STREET3": null, "STREET4": null, "TSP_Type": "TSP,FIRE PREEMPT", "start_date": 0, "data_as_of": "04/26/2023 03:24:48 PM", "owner": "SFMTA" }, "geometry": { "type": "Point", "coordinates": [ -122.46374921, 37.773624065 ] } },
{ "type": "Feature", "properties": { "STREET1": "LOMBARD", "STREET2": "STEINER", "STREET3": null, "STREET4": null, "TSP_Type": "TSP,FIRE PREEMPT", "start_date": 0, "data_as_of": "04/26/2023 03:24:48 PM", "owner": "SFMTA" }, "geometry": { "type": "Point", "coordinates": [ -122.437694706, 37.79963393 ] } },
{ "type": "Feature", "properties": { "STREET1": "POST", "STREET2": "STOCKTON", "STREET3": null, "STREET4": null, "TSP_Type": "TSP,FIRE PREEMPT", "start_date": 0, "data_as_of": "04/26/2023 03:24:48 PM", "owner": "SFMTA" }, "geometry": { "type": "Point", "coordinates": [ -122.406771144, 37.788499479 ] } },
{ "type": "Feature", "properties": { "STREET1": "LAGUNA", "STREET2": "MCALLISTER", "STREET3": null, "STREET4": null, "TSP_Type": "TSP,FIRE PREEMPT", "start_date": 2015, "data_as_of": "04/26/2023 03:25:40 PM", "owner": "SFMTA" }, "geometry": { "type": "Point", "coordinates": [ -122.426828556, 37.779257971 ] } },
{ "type": "Feature", "properties": { "STREET1": "FILLMORE", "STREET2": "GEARY (SOUTH)", "STREET3": null, "STREET4": null, "TSP_Type": "TSP,FIRE PREEMPT", "start_date": 2021, "data_as_of": "04/26/2023 03:25:40 PM", "owner": "SFMTA" }, "geometry": { "type": "Point", "coordinates": [ -122.432889139, 37.784226843 ] } },
{ "type": "Feature", "properties": { "STREET1": "03RD ST", "STREET2": "MIDBLOCK AT", "STREET3": "HOWARD", "STREET4": "MISSION", "TSP_Type": "TSP,FIRE PREEMPT", "start_date": 1996, "data_as_of": "04/26/2023 03:25:40 PM", "owner": "SFMTA" }, "geometry": { "type": "Point", "coordinates": [ -122.40111585, 37.785544227 ] } },
{ "type": "Feature", "properties": { "STREET1": "BUSH", "STREET2": "POWELL", "STREET3": null, "STREET4": null, "TSP_Type": "CABLE CAR PREEMPTION", "start_date": 2004, "data_as_of": "04/26/2023 03:24:48 PM", "owner": "SFMTA" }, "geometry": { "type": "Point", "coordinates": [ -122.408786106, 37.790159501 ] } },
{ "type": "Feature", "properties": { "STREET1": "ARGUELLO", "STREET2": "GEARY", "STREET3": null, "STREET4": null, "TSP_Type": "TSP,FIRE PREEMPT", "start_date": 0, "data_as_of": "04/26/2023 03:24:48 PM", "owner": "SFMTA" }, "geometry": { "type": "Point", "coordinates": [ -122.458858661, 37.781257061 ] } },
{ "type": "Feature", "properties": { "STREET1": "05TH ST", "STREET2": "FOLSOM", "STREET3": null, "STREET4": null, "TSP_Type": "TSP,FIRE PREEMPT", "start_date": 1999, "data_as_of": "04/26/2023 03:24:48 PM", "owner": "SFMTA" }, "geometry": { "type": "Point", "coordinates": [ -122.403387209, 37.780264972 ] } },
{ "type": "Feature", "properties": { "STREET1": "ITALY", "STREET2": "MISSION", "STREET3": null, "STREET4": null, "TSP_Type": "TSP,FIRE PREEMPT", "start_date": 0, "data_as_of": "04/26/2023 03:24:48 PM", "owner": "SFMTA" }, "geometry": { "type": "Point", "coordinates": [ -122.439500375, 37.718467226 ] } },
{ "type": "Feature", "properties": { "STREET1": "CALIFORNIA", "STREET2": "PIERCE", "STREET3": null, "STREET4": null, "TSP_Type": "TSP,FIRE PREEMPT", "start_date": 2012, "data_as_of": "04/26/2023 03:25:40 PM", "owner": "SFMTA" }, "geometry": { "type": "Point", "coordinates": [ -122.437129195, 37.788487862 ] } },
{ "type": "Feature", "properties": { "STREET1": "17TH ST", "STREET2": "CASTRO", "STREET3": "MARKET", "STREET4": null, "TSP_Type": "ACTUATED TRANSIT PHASE", "start_date": 2014, "data_as_of": "04/26/2023 03:24:48 PM", "owner": "SFMTA" }, "geometry": { "type": "Point", "coordinates": [ -122.435187962, 37.762670708 ] } },
{ "type": "Feature", "properties": { "STREET1": "04TH ST", "STREET2": "BRANNAN", "STREET3": null, "STREET4": null, "TSP_Type": "TSP,FIRE PREEMPT", "start_date": 2002, "data_as_of": "04/26/2023 03:24:48 PM", "owner": "SFMTA" }, "geometry": { "type": "Point", "coordinates": [ -122.396530638, 37.778326832 ] } },
{ "type": "Feature", "properties": { "STREET1": "McALLISTER", "STREET2": "SCOTT", "STREET3": null, "STREET4": null, "TSP_Type": "TSP,FIRE PREEMPT", "start_date": 2018, "data_as_of": "04/26/2023 03:25:40 PM", "owner": "SFMTA" }, "geometry": { "type": "Point", "coordinates": [ -122.436669987, 37.777984353 ] } },
{ "type": "Feature", "properties": { "STREET1": "19TH AVE", "STREET2": "SANTIAGO", "STREET3": null, "STREET4": null, "TSP_Type": "TSP,FIRE PREEMPT", "start_date": 2009, "data_as_of": "04/26/2023 03:24:48 PM", "owner": "SFMTA" }, "geometry": { "type": "Point", "coordinates": [ -122.475773242, 37.744918718 ] } },
{ "type": "Feature", "properties": { "STREET1": "FILLMORE", "STREET2": "HAYES", "STREET3": null, "STREET4": null, "TSP_Type": "TSP,FIRE PREEMPT", "start_date": 0, "data_as_of": "04/26/2023 03:25:40 PM", "owner": "SFMTA" }, "geometry": { "type": "Point", "coordinates": [ -122.431198609, 37.775834342 ] } },
{ "type": "Feature", "properties": { "STREET1": "08TH ST", "STREET2": "FOLSOM", "STREET3": null, "STREET4": null, "TSP_Type": "TSP,FIRE PREEMPT", "start_date": 1999, "data_as_of": "04/26/2023 03:24:48 PM", "owner": "SFMTA" }, "geometry": { "type": "Point", "coordinates": [ -122.41006277, 37.774991792 ] } },
{ "type": "Feature", "properties": { "STREET1": "32ND AVE", "STREET2": "GEARY", "STREET3": null, "STREET4": null, "TSP_Type": "TSP,FIRE PREEMPT", "start_date": 2004, "data_as_of": "04/26/2023 03:24:48 PM", "owner": "SFMTA" }, "geometry": { "type": "Point", "coordinates": [ -122.492232288, 37.77974695 ] } },
{ "type": "Feature", "properties": { "STREET1": "EDDY", "STREET2": "FILLMORE", "STREET3": null, "STREET4": null, "TSP_Type": "TSP,FIRE PREEMPT", "start_date": 0, "data_as_of": "04/26/2023 03:24:48 PM", "owner": "SFMTA" }, "geometry": { "type": "Point", "coordinates": [ -122.432328981, 37.781428371 ] } },
{ "type": "Feature", "properties": { "STREET1": "15TH AVE", "STREET2": "GEARY", "STREET3": null, "STREET4": null, "TSP_Type": "TSP,FIRE PREEMPT", "start_date": 2009, "data_as_of": "04/26/2023 03:25:40 PM", "owner": "SFMTA" }, "geometry": { "type": "Point", "coordinates": [ -122.47398247, 37.780575382 ] } },
{ "type": "Feature", "properties": { "STREET1": "03RD ST", "STREET2": "TERRY FRANCOIS", "STREET3": null, "STREET4": null, "TSP_Type": "BRIDGE PREEMPT", "start_date": 1999, "data_as_of": "04/26/2023 03:24:48 PM", "owner": "SFMTA" }, "geometry": { "type": "Point", "coordinates": [ -122.39002504, 37.776300145 ] } },
{ "type": "Feature", "properties": { "STREET1": "03RD ST", "STREET2": "KEY", "STREET3": null, "STREET4": null, "TSP_Type": "TSP", "start_date": 2005, "data_as_of": "04/26/2023 03:24:48 PM", "owner": "SFMTA" }, "geometry": { "type": "Point", "coordinates": [ -122.396954352, 37.719476579 ] } },
{ "type": "Feature", "properties": { "STREET1": "CALIFORNIA", "STREET2": "MASON", "STREET3": null, "STREET4": null, "TSP_Type": "CABLE CAR PREEMPTION", "start_date": 0, "data_as_of": "04/26/2023 03:24:48 PM", "owner": "SFMTA" }, "geometry": { "type": "Point", "coordinates": [ -122.410817534, 37.791834629 ] } },
{ "type": "Feature", "properties": { "STREET1": "BAY", "STREET2": "KEARNY", "STREET3": null, "STREET4": null, "TSP_Type": "TSP,FIRE PREEMPT", "start_date": 1997, "data_as_of": "04/26/2023 03:24:48 PM", "owner": "SFMTA" }, "geometry": { "type": "Point", "coordinates": [ -122.407146282, 37.806427814 ] } },
{ "type": "Feature", "properties": { "STREET1": "BROADWAY", "STREET2": "VAN NESS", "STREET3": null, "STREET4": null, "TSP_Type": "TSP,FIRE PREEMPT", "start_date": 2021, "data_as_of": "04/26/2023 03:24:48 PM", "owner": "SFMTA" }, "geometry": { "type": "Point", "coordinates": [ -122.423413056, 37.795737109 ] } },
{ "type": "Feature", "properties": { "STREET1": "EMBARCADERO", "STREET2": "MIDBLOCK AT", "STREET3": "BROADWAY", "STREET4": "WASHINGTON", "TSP_Type": "TSP", "start_date": 1999, "data_as_of": "04/26/2023 03:25:40 PM", "owner": "SFMTA" }, "geometry": { "type": "Point", "coordinates": [ -122.396898769, 37.798364188 ] } },
{ "type": "Feature", "properties": { "STREET1": "16TH ST", "STREET2": "POTRERO", "STREET3": null, "STREET4": null, "TSP_Type": "TSP,FIRE PREEMPT", "start_date": 2005, "data_as_of": "04/26/2023 03:24:48 PM", "owner": "SFMTA" }, "geometry": { "type": "Point", "coordinates": [ -122.407534229, 37.765783299 ] } },
{ "type": "Feature", "properties": { "STREET1": "APPLETON", "STREET2": "MISSION", "STREET3": null, "STREET4": null, "TSP_Type": "TSP,FIRE PREEMPT", "start_date": 1999, "data_as_of": "04/26/2023 03:24:48 PM", "owner": "SFMTA" }, "geometry": { "type": "Point", "coordinates": [ -122.423948784, 37.738843285 ] } },
{ "type": "Feature", "properties": { "STREET1": "05TH AVE", "STREET2": "GEARY", "STREET3": null, "STREET4": null, "TSP_Type": "TSP,FIRE PREEMPT", "start_date": 2004, "data_as_of": "04/26/2023 03:24:48 PM", "owner": "SFMTA" }, "geometry": { "type": "Point", "coordinates": [ -122.46321068, 37.781070165 ] } },
{ "type": "Feature", "properties": { "STREET1": "MISSION", "STREET2": "RICHLAND", "STREET3": null, "STREET4": null, "TSP_Type": "TSP,FIRE PREEMPT", "start_date": 1999, "data_as_of": "04/26/2023 03:24:48 PM", "owner": "SFMTA" }, "geometry": { "type": "Point", "coordinates": [ -122.424466263, 37.736061172 ] } },
{ "type": "Feature", "properties": { "STREET1": "LAWRENCE", "STREET2": "MISSION", "STREET3": "OLIVER", "STREET4": null, "TSP_Type": "TSP,FIRE PREEMPT", "start_date": 2019, "data_as_of": "04/26/2023 03:25:40 PM", "owner": "SFMTA" }, "geometry": { "type": "Point", "coordinates": [ -122.450883667, 37.709412743 ] } },
{ "type": "Feature", "properties": { "STREET1": "DIVISADERO", "STREET2": "LOMBARD", "STREET3": null, "STREET4": null, "TSP_Type": "TSP,FIRE PREEMPT", "start_date": 0, "data_as_of": "04/26/2023 03:24:48 PM", "owner": "SFMTA" }, "geometry": { "type": "Point", "coordinates": [ -122.442647897, 37.79900005 ] } },
{ "type": "Feature", "properties": { "STREET1": "GOUGH", "STREET2": "POST", "STREET3": null, "STREET4": null, "TSP_Type": "TSP,FIRE PREEMPT", "start_date": 2019, "data_as_of": "04/26/2023 03:24:48 PM", "owner": "SFMTA" }, "geometry": { "type": "Point", "coordinates": [ -122.424858423, 37.786196428 ] } },
{ "type": "Feature", "properties": { "STREET1": "CALIFORNIA", "STREET2": "LOCUST", "STREET3": null, "STREET4": null, "TSP_Type": "TSP,FIRE PREEMPT", "start_date": 2018, "data_as_of": "04/26/2023 03:24:48 PM", "owner": "SFMTA" }, "geometry": { "type": "Point", "coordinates": [ -122.451757956, 37.786619561 ] } },
{ "type": "Feature", "properties": { "STREET1": "EMBARCADERO", "STREET2": "JEFFERSON", "STREET3": "POWELL", "STREET4": null, "TSP_Type": "TSP", "start_date": 1998, "data_as_of": "04/26/2023 03:24:48 PM", "owner": "SFMTA" }, "geometry": { "type": "Point", "coordinates": [ -122.412523835, 37.80862485 ] } },
{ "type": "Feature", "properties": { "STREET1": "LEAVENWORTH", "STREET2": "O'FARRELL", "STREET3": null, "STREET4": null, "TSP_Type": "TSP,FIRE PREEMPT", "start_date": 2020, "data_as_of": "04/26/2023 03:24:48 PM", "owner": "SFMTA" }, "geometry": { "type": "Point", "coordinates": [ -122.414617207, 37.785582475 ] } },
{ "type": "Feature", "properties": { "STREET1": "CALIFORNIA", "STREET2": "LEAVENWORTH", "STREET3": null, "STREET4": null, "TSP_Type": "CABLE CAR PREEMPTION", "start_date": 2019, "data_as_of": "04/26/2023 03:24:48 PM", "owner": "SFMTA" }, "geometry": { "type": "Point", "coordinates": [ -122.415750197, 37.791206309 ] } },
{ "type": "Feature", "properties": { "STREET1": "17TH ST", "STREET2": "CHURCH", "STREET3": null, "STREET4": null, "TSP_Type": "TSP,ACTUATED TRANSIT PHASE", "start_date": 0, "data_as_of": "04/26/2023 03:24:48 PM", "owner": "SFMTA" }, "geometry": { "type": "Point", "coordinates": [ -122.42850875, 37.762889866 ] } },
{ "type": "Feature", "properties": { "STREET1": "08TH AVE", "STREET2": "FULTON", "STREET3": null, "STREET4": null, "TSP_Type": "TSP,FIRE PREEMPT", "start_date": 2005, "data_as_of": "04/26/2023 03:24:48 PM", "owner": "SFMTA" }, "geometry": { "type": "Point", "coordinates": [ -122.465883163, 37.773398205 ] } },
{ "type": "Feature", "properties": { "STREET1": "22ND ST", "STREET2": "MISSION", "STREET3": null, "STREET4": null, "TSP_Type": "TSP,FIRE PREEMPT", "start_date": 2007, "data_as_of": "04/26/2023 03:25:40 PM", "owner": "SFMTA" }, "geometry": { "type": "Point", "coordinates": [ -122.418747574, 37.755436936 ] } },
{ "type": "Feature", "properties": { "STREET1": "FILLMORE", "STREET2": "POST", "STREET3": null, "STREET4": null, "TSP_Type": "TSP,FIRE PREEMPT", "start_date": 0, "data_as_of": "04/26/2023 03:24:48 PM", "owner": "SFMTA" }, "geometry": { "type": "Point", "coordinates": [ -122.433083398, 37.78515094 ] } },
{ "type": "Feature", "properties": { "STREET1": "06TH ST", "STREET2": "HARRISON", "STREET3": null, "STREET4": null, "TSP_Type": "TSP,FIRE PREEMPT", "start_date": 1999, "data_as_of": "04/26/2023 03:24:48 PM", "owner": "SFMTA" }, "geometry": { "type": "Point", "coordinates": [ -122.404070257, 37.777272703 ] } },
{ "type": "Feature", "properties": { "STREET1": "ARGUELLO", "STREET2": "CLEMENT", "STREET3": null, "STREET4": null, "TSP_Type": "TSP,FIRE PREEMPT", "start_date": 2019, "data_as_of": "04/26/2023 03:24:48 PM", "owner": "SFMTA" }, "geometry": { "type": "Point", "coordinates": [ -122.458998401, 37.783188665 ] } },
{ "type": "Feature", "properties": { "STREET1": "09TH ST", "STREET2": "MISSION", "STREET3": null, "STREET4": null, "TSP_Type": "TSP,FIRE PREEMPT", "start_date": 2003, "data_as_of": "04/26/2023 03:25:40 PM", "owner": "SFMTA" }, "geometry": { "type": "Point", "coordinates": [ -122.414711004, 37.77623052 ] } },
{ "type": "Feature", "properties": { "STREET1": "11TH AVE", "STREET2": "GEARY", "STREET3": null, "STREET4": null, "TSP_Type": "TSP,FIRE PREEMPT", "start_date": 2009, "data_as_of": "04/26/2023 03:25:40 PM", "owner": "SFMTA" }, "geometry": { "type": "Point", "coordinates": [ -122.469627032, 37.780768739 ] } },
{ "type": "Feature", "properties": { "STREET1": "NORTH POINT", "STREET2": "STOCKTON", "STREET3": null, "STREET4": null, "TSP_Type": "TSP,FIRE PREEMPT", "start_date": 2005, "data_as_of": "04/26/2023 03:25:40 PM", "owner": "SFMTA" }, "geometry": { "type": "Point", "coordinates": [ -122.410497538, 37.806962927 ] } },
{ "type": "Feature", "properties": { "STREET1": "GOUGH", "STREET2": "LOMBARD", "STREET3": null, "STREET4": null, "TSP_Type": "TSP,FIRE PREEMPT", "start_date": 0, "data_as_of": "04/26/2023 03:24:48 PM", "owner": "SFMTA" }, "geometry": { "type": "Point", "coordinates": [ -122.427825033, 37.800886755 ] } },
{ "type": "Feature", "properties": { "STREET1": "CESAR CHAVEZ", "STREET2": "MISSION", "STREET3": null, "STREET4": null, "TSP_Type": "TSP,FIRE PREEMPT", "start_date": 2014, "data_as_of": "04/26/2023 03:24:48 PM", "owner": "SFMTA" }, "geometry": { "type": "Point", "coordinates": [ -122.418221171, 37.748165689 ] } },
{ "type": "Feature", "properties": { "STREET1": "34TH AVE", "STREET2": "GEARY", "STREET3": null, "STREET4": null, "TSP_Type": "TSP,FIRE PREEMPT", "start_date": 2005, "data_as_of": "04/26/2023 03:25:40 PM", "owner": "SFMTA" }, "geometry": { "type": "Point", "coordinates": [ -122.49438066, 37.779649715 ] } },
{ "type": "Feature", "properties": { "STREET1": "03RD ST", "STREET2": "20TH ST", "STREET3": null, "STREET4": null, "TSP_Type": "TSP,FIRE PREEMPT", "start_date": 2004, "data_as_of": "04/26/2023 03:24:48 PM", "owner": "SFMTA" }, "geometry": { "type": "Point", "coordinates": [ -122.388556399, 37.760491009 ] } },
{ "type": "Feature", "properties": { "STREET1": "DRUMM", "STREET2": "SACRAMENTO", "STREET3": null, "STREET4": null, "TSP_Type": "TSP,FIRE PREEMPT", "start_date": 0, "data_as_of": "04/26/2023 03:24:48 PM", "owner": "SFMTA" }, "geometry": { "type": "Point", "coordinates": [ -122.396585913, 37.794588216 ] } },
{ "type": "Feature", "properties": { "STREET1": "FAXON", "STREET2": "OCEAN", "STREET3": null, "STREET4": null, "TSP_Type": "TSP", "start_date": 0, "data_as_of": "04/26/2023 03:24:48 PM", "owner": "SFMTA" }, "geometry": { "type": "Point", "coordinates": [ -122.460234463, 37.724748848 ] } },
{ "type": "Feature", "properties": { "STREET1": "ESQUINA", "STREET2": "GENEVA", "STREET3": null, "STREET4": null, "TSP_Type": "TSP,FIRE PREEMPT", "start_date": 2019, "data_as_of": "04/26/2023 03:25:40 PM", "owner": "SFMTA" }, "geometry": { "type": "Point", "coordinates": [ -122.42161733, 37.708743055 ] } },
{ "type": "Feature", "properties": { "STREET1": "CALIFORNIA", "STREET2": "SPRUCE", "STREET3": null, "STREET4": null, "TSP_Type": "TSP,FIRE PREEMPT", "start_date": 2018, "data_as_of": "04/26/2023 03:24:48 PM", "owner": "SFMTA" }, "geometry": { "type": "Point", "coordinates": [ -122.453406647, 37.786417731 ] } },
{ "type": "Feature", "properties": { "STREET1": "36TH AVE", "STREET2": "FULTON", "STREET3": null, "STREET4": null, "TSP_Type": "TSP,FIRE PREEMPT", "start_date": 0, "data_as_of": "04/26/2023 03:24:48 PM", "owner": "SFMTA" }, "geometry": { "type": "Point", "coordinates": [ -122.495972016, 37.772032015 ] } },
{ "type": "Feature", "properties": { "STREET1": "MISSION", "STREET2": "SENECA", "STREET3": null, "STREET4": null, "TSP_Type": "TSP,FIRE PREEMPT", "start_date": 2018, "data_as_of": "04/26/2023 03:25:40 PM", "owner": "SFMTA" }, "geometry": { "type": "Point", "coordinates": [ -122.440106607, 37.71766531 ] } },
{ "type": "Feature", "properties": { "STREET1": "05TH ST", "STREET2": "HOWARD", "STREET3": null, "STREET4": null, "TSP_Type": "TSP,FIRE PREEMPT", "start_date": 1999, "data_as_of": "04/26/2023 03:24:48 PM", "owner": "SFMTA" }, "geometry": { "type": "Point", "coordinates": [ -122.404933347, 37.781499508 ] } },
{ "type": "Feature", "properties": { "STREET1": "GEARY", "STREET2": "MASON", "STREET3": null, "STREET4": null, "TSP_Type": "TSP,FIRE PREEMPT", "start_date": 0, "data_as_of": "04/26/2023 03:24:48 PM", "owner": "SFMTA" }, "geometry": { "type": "Point", "coordinates": [ -122.409874017, 37.787149143 ] } },
{ "type": "Feature", "properties": { "STREET1": "BAYSHORE", "STREET2": "BLANKEN", "STREET3": null, "STREET4": null, "TSP_Type": "TSP", "start_date": 2004, "data_as_of": "04/26/2023 03:25:40 PM", "owner": "SFMTA" }, "geometry": { "type": "Point", "coordinates": [ -122.401914748, 37.712250863 ] } },
{ "type": "Feature", "properties": { "STREET1": "03RD ST", "STREET2": "MISSION BAY SOUTH", "STREET3": null, "STREET4": null, "TSP_Type": "TSP", "start_date": 2006, "data_as_of": "04/26/2023 03:25:40 PM", "owner": "SFMTA" }, "geometry": { "type": "Point", "coordinates": [ -122.389414285, 37.770660892 ] } },
{ "type": "Feature", "properties": { "STREET1": "CHESTNUT", "STREET2": "COLUMBUS", "STREET3": "TAYLOR", "STREET4": null, "TSP_Type": "CABLE CAR PREEMPTION", "start_date": 0, "data_as_of": "04/26/2023 03:24:48 PM", "owner": "SFMTA" }, "geometry": { "type": "Point", "coordinates": [ -122.414876785, 37.803542325 ] } },
{ "type": "Feature", "properties": { "STREET1": "03RD ST", "STREET2": "LA SALLE", "STREET3": null, "STREET4": null, "TSP_Type": "TSP", "start_date": 2004, "data_as_of": "04/26/2023 03:24:48 PM", "owner": "SFMTA" }, "geometry": { "type": "Point", "coordinates": [ -122.389864463, 37.737169532 ] } },
{ "type": "Feature", "properties": { "STREET1": "BUSH", "STREET2": "VAN NESS", "STREET3": null, "STREET4": null, "TSP_Type": "TSP,FIRE PREEMPT", "start_date": 2021, "data_as_of": "04/26/2023 03:24:48 PM", "owner": "SFMTA" }, "geometry": { "type": "Point", "coordinates": [ -122.421948585, 37.788489643 ] } },
{ "type": "Feature", "properties": { "STREET1": "GOUGH", "STREET2": "MCCOPPIN", "STREET3": "OTIS", "STREET4": null, "TSP_Type": "TSP,FIRE PREEMPT", "start_date": 0, "data_as_of": "04/26/2023 03:24:48 PM", "owner": "SFMTA" }, "geometry": { "type": "Point", "coordinates": [ -122.420344368, 37.77177025 ] } },
{ "type": "Feature", "properties": { "STREET1": "SUTTER", "STREET2": "VAN NESS", "STREET3": null, "STREET4": null, "TSP_Type": "TSP,FIRE PREEMPT", "start_date": 2021, "data_as_of": "04/26/2023 03:24:48 PM", "owner": "SFMTA" }, "geometry": { "type": "Point", "coordinates": [ -122.421758104, 37.78754814 ] } },
{ "type": "Feature", "properties": { "STREET1": "12TH AVE", "STREET2": "GEARY", "STREET3": null, "STREET4": null, "TSP_Type": "TSP,FIRE PREEMPT", "start_date": 2002, "data_as_of": "04/26/2023 03:25:40 PM", "owner": "SFMTA" }, "geometry": { "type": "Point", "coordinates": [ -122.470716667, 37.780723472 ] } },
{ "type": "Feature", "properties": { "STREET1": "03RD ST", "STREET2": "CAMPUS", "STREET3": null, "STREET4": null, "TSP_Type": "TSP,TRANSIT PREEMPT", "start_date": 2019, "data_as_of": "04/26/2023 03:25:40 PM", "owner": "SFMTA" }, "geometry": { "type": "Point", "coordinates": [ -122.389286735, 37.76787442 ] } },
{ "type": "Feature", "properties": { "STREET1": "BATTERY", "STREET2": "CLAY", "STREET3": null, "STREET4": null, "TSP_Type": "TSP,FIRE PREEMPT", "start_date": 0, "data_as_of": "04/26/2023 03:24:48 PM", "owner": "SFMTA" }, "geometry": { "type": "Point", "coordinates": [ -122.400329332, 37.79501315 ] } },
{ "type": "Feature", "properties": { "STREET1": "BEACH", "STREET2": "JONES", "STREET3": null, "STREET4": null, "TSP_Type": "TRANSIT PREEMPT", "start_date": 1998, "data_as_of": "04/26/2023 03:24:48 PM", "owner": "SFMTA" }, "geometry": { "type": "Point", "coordinates": [ -122.417260632, 37.807072514 ] } },
{ "type": "Feature", "properties": { "STREET1": "03RD ST", "STREET2": "LANE", "STREET3": "VAN DYKE", "STREET4": "WILLIAMS", "TSP_Type": "TSP,TRANSIT PREEMPT", "start_date": 2005, "data_as_of": "04/26/2023 03:24:48 PM", "owner": "SFMTA" }, "geometry": { "type": "Point", "coordinates": [ -122.392624535, 37.729278454 ] } },
{ "type": "Feature", "properties": { "STREET1": "EMBARCADERO", "STREET2": "HOWARD", "STREET3": null, "STREET4": null, "TSP_Type": "TSP", "start_date": 1999, "data_as_of": "04/26/2023 03:24:48 PM", "owner": "SFMTA" }, "geometry": { "type": "Point", "coordinates": [ -122.391095976, 37.792436064 ] } },
{ "type": "Feature", "properties": { "STREET1": "03RD ST", "STREET2": "WALLACE", "STREET3": null, "STREET4": null, "TSP_Type": "TSP", "start_date": 2005, "data_as_of": "04/26/2023 03:24:48 PM", "owner": "SFMTA" }, "geometry": { "type": "Point", "coordinates": [ -122.39289942, 37.72848958 ] } },
{ "type": "Feature", "properties": { "STREET1": "03RD ST", "STREET2": "HOLLISTER", "STREET3": null, "STREET4": null, "TSP_Type": "TSP", "start_date": 2005, "data_as_of": "04/26/2023 03:24:48 PM", "owner": "SFMTA" }, "geometry": { "type": "Point", "coordinates": [ -122.395943827, 37.72171588 ] } },
{ "type": "Feature", "properties": { "STREET1": "STOCKTON", "STREET2": "SUTTER", "STREET3": null, "STREET4": null, "TSP_Type": "TSP,FIRE PREEMPT", "start_date": 1999, "data_as_of": "04/26/2023 03:24:48 PM", "owner": "SFMTA" }, "geometry": { "type": "Point", "coordinates": [ -122.406956987, 37.789433682 ] } },
{ "type": "Feature", "properties": { "STREET1": "03RD ST", "STREET2": "FOLSOM", "STREET3": null, "STREET4": null, "TSP_Type": "TSP,FIRE PREEMPT", "start_date": 1999, "data_as_of": "04/26/2023 03:24:48 PM", "owner": "SFMTA" }, "geometry": { "type": "Point", "coordinates": [ -122.398930331, 37.783784934 ] } },
{ "type": "Feature", "properties": { "STREET1": "20TH ST", "STREET2": "POTRERO", "STREET3": null, "STREET4": null, "TSP_Type": "TSP,FIRE PREEMPT", "start_date": 0, "data_as_of": "04/26/2023 03:24:48 PM", "owner": "SFMTA" }, "geometry": { "type": "Point", "coordinates": [ -122.406946873, 37.759365489 ] } },
{ "type": "Feature", "properties": { "STREET1": "FRANKLIN", "STREET2": "O'FARRELL", "STREET3": "STARR KING", "STREET4": null, "TSP_Type": "TSP,FIRE PREEMPT", "start_date": 1999, "data_as_of": "04/26/2023 03:24:48 PM", "owner": "SFMTA" }, "geometry": { "type": "Point", "coordinates": [ -122.422838086, 37.78454661 ] } },
{ "type": "Feature", "properties": { "STREET1": "18TH ST", "STREET2": "MISSION", "STREET3": null, "STREET4": null, "TSP_Type": "TSP,FIRE PREEMPT", "start_date": 2007, "data_as_of": "04/26/2023 03:24:48 PM", "owner": "SFMTA" }, "geometry": { "type": "Point", "coordinates": [ -122.419359268, 37.761835855 ] } },
{ "type": "Feature", "properties": { "STREET1": "AVALON", "STREET2": "MISSION", "STREET3": "THERESA", "STREET4": null, "TSP_Type": "TSP,FIRE PREEMPT", "start_date": 2007, "data_as_of": "04/26/2023 03:25:40 PM", "owner": "SFMTA" }, "geometry": { "type": "Point", "coordinates": [ -122.432447324, 37.727637208 ] } },
{ "type": "Feature", "properties": { "STREET1": "COLUMBUS", "STREET2": "UNION", "STREET3": null, "STREET4": null, "TSP_Type": "TSP,ACTUATED TRANSIT PHASE,FIRE PREEMPT", "start_date": 0, "data_as_of": "04/26/2023 03:24:48 PM", "owner": "SFMTA" }, "geometry": { "type": "Point", "coordinates": [ -122.410206544, 37.800315499 ] } },
{ "type": "Feature", "properties": { "STREET1": "PINE", "STREET2": "POWELL", "STREET3": null, "STREET4": null, "TSP_Type": "CABLE CAR PREEMPTION", "start_date": 0, "data_as_of": "04/26/2023 03:24:48 PM", "owner": "SFMTA" }, "geometry": { "type": "Point", "coordinates": [ -122.408976275, 37.791089002 ] } },
{ "type": "Feature", "properties": { "STREET1": "30TH ST", "STREET2": "SAN JOSE", "STREET3": null, "STREET4": null, "TSP_Type": "TRANSIT PREEMPT", "start_date": 0, "data_as_of": "04/26/2023 03:24:48 PM", "owner": "SFMTA" }, "geometry": { "type": "Point", "coordinates": [ -122.423285562, 37.742294533 ] } },
{ "type": "Feature", "properties": { "STREET1": "03RD ST", "STREET2": "CESAR CHAVEZ", "STREET3": null, "STREET4": null, "TSP_Type": "TSP", "start_date": 2005, "data_as_of": "04/26/2023 03:24:48 PM", "owner": "SFMTA" }, "geometry": { "type": "Point", "coordinates": [ -122.38758527, 37.750263378 ] } },
{ "type": "Feature", "properties": { "STREET1": "GEARY", "STREET2": "JORDAN", "STREET3": "STANYAN", "STREET4": null, "TSP_Type": "TSP,FIRE PREEMPT", "start_date": 0, "data_as_of": "04/26/2023 03:24:48 PM", "owner": "SFMTA" }, "geometry": { "type": "Point", "coordinates": [ -122.456298549, 37.781388619 ] } },
{ "type": "Feature", "properties": { "STREET1": "20TH ST", "STREET2": "MISSION", "STREET3": null, "STREET4": null, "TSP_Type": "TSP,FIRE PREEMPT", "start_date": 2007, "data_as_of": "04/26/2023 03:24:48 PM", "owner": "SFMTA" }, "geometry": { "type": "Point", "coordinates": [ -122.419052607, 37.758632567 ] } },
{ "type": "Feature", "properties": { "STREET1": "FELTON", "STREET2": "SAN BRUNO", "STREET3": null, "STREET4": null, "TSP_Type": "TSP,FIRE PREEMPT", "start_date": 2019, "data_as_of": "04/26/2023 03:25:40 PM", "owner": "SFMTA" }, "geometry": { "type": "Point", "coordinates": [ -122.404592617, 37.730037195 ] } },
{ "type": "Feature", "properties": { "STREET1": "27TH AVE", "STREET2": "GEARY", "STREET3": null, "STREET4": null, "TSP_Type": "TSP,FIRE PREEMPT", "start_date": 0, "data_as_of": "04/26/2023 03:24:48 PM", "owner": "SFMTA" }, "geometry": { "type": "Point", "coordinates": [ -122.486878047, 37.77999354 ] } },
{ "type": "Feature", "properties": { "STREET1": "08TH ST", "STREET2": "MISSION", "STREET3": null, "STREET4": null, "TSP_Type": "TSP,FIRE PREEMPT", "start_date": 2003, "data_as_of": "04/26/2023 03:24:48 PM", "owner": "SFMTA" }, "geometry": { "type": "Point", "coordinates": [ -122.413157691, 37.77745742 ] } },
{ "type": "Feature", "properties": { "STREET1": "BEACH", "STREET2": "STOCKTON", "STREET3": null, "STREET4": null, "TSP_Type": "TRANSIT PREEMPT", "start_date": 1998, "data_as_of": "04/26/2023 03:25:40 PM", "owner": "SFMTA" }, "geometry": { "type": "Point", "coordinates": [ -122.41068505, 37.807892133 ] } },
{ "type": "Feature", "properties": { "STREET1": "03RD ST", "STREET2": "KING", "STREET3": null, "STREET4": null, "TSP_Type": "TSP,BRIDGE PREEMPT", "start_date": 1999, "data_as_of": "04/26/2023 03:24:48 PM", "owner": "SFMTA" }, "geometry": { "type": "Point", "coordinates": [ -122.391840272, 37.778125724 ] } },
{ "type": "Feature", "properties": { "STREET1": "CALIFORNIA", "STREET2": "GRANT", "STREET3": null, "STREET4": null, "TSP_Type": "CABLE CAR PREEMPTION", "start_date": 0, "data_as_of": "04/26/2023 03:24:48 PM", "owner": "SFMTA" }, "geometry": { "type": "Point", "coordinates": [ -122.405938119, 37.792450752 ] } },
{ "type": "Feature", "properties": { "STREET1": "03RD ST", "STREET2": "HOWARD", "STREET3": null, "STREET4": null, "TSP_Type": "TSP,FIRE PREEMPT", "start_date": 1999, "data_as_of": "04/26/2023 03:24:48 PM", "owner": "SFMTA" }, "geometry": { "type": "Point", "coordinates": [ -122.400468484, 37.785030285 ] } },
{ "type": "Feature", "properties": { "STREET1": "BAYSHORE", "STREET2": "LELAND", "STREET3": null, "STREET4": null, "TSP_Type": "TSP,FIRE PREEMPT", "start_date": 2004, "data_as_of": "04/26/2023 03:24:48 PM", "owner": "SFMTA" }, "geometry": { "type": "Point", "coordinates": [ -122.403650107, 37.711188573 ] } },
{ "type": "Feature", "properties": { "STREET1": "BLAKE", "STREET2": "GEARY", "STREET3": null, "STREET4": null, "TSP_Type": "TSP,FIRE PREEMPT", "start_date": 2009, "data_as_of": "04/26/2023 03:25:40 PM", "owner": "SFMTA" }, "geometry": { "type": "Point", "coordinates": [ -122.45111986, 37.781984116 ] } },
{ "type": "Feature", "properties": { "STREET1": "CENTRAL", "STREET2": "HAIGHT", "STREET3": null, "STREET4": null, "TSP_Type": "TSP,FIRE PREEMPT", "start_date": 2021, "data_as_of": "04/26/2023 03:25:40 PM", "owner": "SFMTA" }, "geometry": { "type": "Point", "coordinates": [ -122.443649086, 37.770426371 ] } },
{ "type": "Feature", "properties": { "STREET1": "HAIGHT", "STREET2": "WEBSTER", "STREET3": null, "STREET4": null, "TSP_Type": "TSP,FIRE PREEMPT", "start_date": 2021, "data_as_of": "04/26/2023 03:25:40 PM", "owner": "SFMTA" }, "geometry": { "type": "Point", "coordinates": [ -122.428843382, 37.772289765 ] } },
{ "type": "Feature", "properties": { "STREET1": "BROADWAY", "STREET2": "EMBARCADERO", "STREET3": null, "STREET4": null, "TSP_Type": "TSP", "start_date": 1995, "data_as_of": "04/26/2023 03:24:48 PM", "owner": "SFMTA" }, "geometry": { "type": "Point", "coordinates": [ -122.397670094, 37.799234353 ] } },
{ "type": "Feature", "properties": { "STREET1": "HYDE", "STREET2": "O'FARRELL", "STREET3": null, "STREET4": null, "TSP_Type": "TSP,FIRE PREEMPT", "start_date": 0, "data_as_of": "04/26/2023 03:24:48 PM", "owner": "SFMTA" }, "geometry": { "type": "Point", "coordinates": [ -122.416259706, 37.785375975 ] } },
{ "type": "Feature", "properties": { "STREET1": "BATTERY", "STREET2": "SACRAMENTO", "STREET3": null, "STREET4": null, "TSP_Type": "TSP,FIRE PREEMPT", "start_date": 0, "data_as_of": "04/26/2023 03:24:48 PM", "owner": "SFMTA" }, "geometry": { "type": "Point", "coordinates": [ -122.400148779, 37.794134235 ] } },
{ "type": "Feature", "properties": { "STREET1": "14TH ST", "STREET2": "MISSION", "STREET3": null, "STREET4": null, "TSP_Type": "TSP,FIRE PREEMPT", "start_date": 2007, "data_as_of": "04/26/2023 03:24:48 PM", "owner": "SFMTA" }, "geometry": { "type": "Point", "coordinates": [ -122.419981512, 37.768273653 ] } },
{ "type": "Feature", "properties": { "STREET1": "21ST ST", "STREET2": "POTRERO", "STREET3": null, "STREET4": null, "TSP_Type": "TSP,FIRE PREEMPT", "start_date": 0, "data_as_of": "04/26/2023 03:24:48 PM", "owner": "SFMTA" }, "geometry": { "type": "Point", "coordinates": [ -122.406799736, 37.757762058 ] } },
{ "type": "Feature", "properties": { "STREET1": "GEARY", "STREET2": "HYDE", "STREET3": null, "STREET4": null, "TSP_Type": "TSP,FIRE PREEMPT", "start_date": 0, "data_as_of": "04/26/2023 03:24:48 PM", "owner": "SFMTA" }, "geometry": { "type": "Point", "coordinates": [ -122.416449123, 37.786310218 ] } },
{ "type": "Feature", "properties": { "STREET1": "06TH AVE", "STREET2": "CLEMENT", "STREET3": null, "STREET4": null, "TSP_Type": "TSP,FIRE PREEMPT", "start_date": 2005, "data_as_of": "04/26/2023 03:24:48 PM", "owner": "SFMTA" }, "geometry": { "type": "Point", "coordinates": [ -122.464425025, 37.782939934 ] } },
{ "type": "Feature", "properties": { "STREET1": "24TH ST", "STREET2": "POTRERO", "STREET3": null, "STREET4": null, "TSP_Type": "TSP,FIRE PREEMPT", "start_date": 0, "data_as_of": "04/26/2023 03:24:48 PM", "owner": "SFMTA" }, "geometry": { "type": "Point", "coordinates": [ -122.406336238, 37.75300403 ] } },
{ "type": "Feature", "properties": { "STREET1": "BEACH", "STREET2": "EMBARCADERO", "STREET3": "GRANT", "STREET4": null, "TSP_Type": "TSP", "start_date": 1998, "data_as_of": "04/26/2023 03:24:48 PM", "owner": "SFMTA" }, "geometry": { "type": "Point", "coordinates": [ -122.409050495, 37.808110754 ] } },
{ "type": "Feature", "properties": { "STREET1": "EMBARCADERO", "STREET2": "MIDBLOCK AT", "STREET3": "BRANNAN", "STREET4": "TOWNSEND", "TSP_Type": "TSP", "start_date": 1998, "data_as_of": "04/26/2023 03:25:40 PM", "owner": "SFMTA" }, "geometry": { "type": "Point", "coordinates": [ -122.388256826, 37.783584669 ] } },
{ "type": "Feature", "properties": { "STREET1": "BRODERICK", "STREET2": "MCALLISTER", "STREET3": null, "STREET4": null, "TSP_Type": "TSP,FIRE PREEMPT", "start_date": 2018, "data_as_of": "04/26/2023 03:25:40 PM", "owner": "SFMTA" }, "geometry": { "type": "Point", "coordinates": [ -122.440026922, 37.777586767 ] } },
{ "type": "Feature", "properties": { "STREET1": "BRYANT", "STREET2": "EMBARCADERO", "STREET3": null, "STREET4": null, "TSP_Type": "TSP", "start_date": 1994, "data_as_of": "04/26/2023 03:24:48 PM", "owner": "SFMTA" }, "geometry": { "type": "Point", "coordinates": [ -122.387794686, 37.787097223 ] } },
{ "type": "Feature", "properties": { "STREET1": "FRANKLIN", "STREET2": "LOMBARD", "STREET3": null, "STREET4": null, "TSP_Type": "TSP,FIRE PREEMPT", "start_date": 0, "data_as_of": "04/26/2023 03:24:48 PM", "owner": "SFMTA" }, "geometry": { "type": "Point", "coordinates": [ -122.426180044, 37.801095455 ] } },
{ "type": "Feature", "properties": { "STREET1": "10TH ST", "STREET2": "FOLSOM", "STREET3": null, "STREET4": null, "TSP_Type": "TSP,FIRE PREEMPT", "start_date": 1999, "data_as_of": "04/26/2023 03:24:48 PM", "owner": "SFMTA" }, "geometry": { "type": "Point", "coordinates": [ -122.412824227, 37.77281216 ] } },
{ "type": "Feature", "properties": { "STREET1": "BRODERICK", "STREET2": "CALIFORNIA", "STREET3": null, "STREET4": null, "TSP_Type": "TSP,FIRE PREEMPT", "start_date": 1996, "data_as_of": "04/26/2023 03:24:48 PM", "owner": "SFMTA" }, "geometry": { "type": "Point", "coordinates": [ -122.442109525, 37.787855573 ] } },
{ "type": "Feature", "properties": { "STREET1": "PINE", "STREET2": "VAN NESS", "STREET3": null, "STREET4": null, "TSP_Type": "TSP,FIRE PREEMPT", "start_date": 2021, "data_as_of": "04/26/2023 03:25:40 PM", "owner": "SFMTA" }, "geometry": { "type": "Point", "coordinates": [ -122.422135209, 37.789412062 ] } },
{ "type": "Feature", "properties": { "STREET1": "14TH ST", "STREET2": "CHURCH", "STREET3": "MARKET", "STREET4": null, "TSP_Type": "TRANSIT PREEMPT", "start_date": 0, "data_as_of": "04/26/2023 03:24:48 PM", "owner": "SFMTA" }, "geometry": { "type": "Point", "coordinates": [ -122.428968772, 37.767729171 ] } },
{ "type": "Feature", "properties": { "STREET1": "GREENWICH", "STREET2": "VAN NESS", "STREET3": null, "STREET4": null, "TSP_Type": "TSP,FIRE PREEMPT", "start_date": 2021, "data_as_of": "04/26/2023 03:24:48 PM", "owner": "SFMTA" }, "geometry": { "type": "Point", "coordinates": [ -122.424358667, 37.800415028 ] } },
{ "type": "Feature", "properties": { "STREET1": "ELLIS", "STREET2": "MASON", "STREET3": null, "STREET4": null, "TSP_Type": "TSP,FIRE PREEMPT", "start_date": 2017, "data_as_of": "04/26/2023 03:24:48 PM", "owner": "SFMTA" }, "geometry": { "type": "Point", "coordinates": [ -122.409497526, 37.785282917 ] } },
{ "type": "Feature", "properties": { "STREET1": "06TH AVE", "STREET2": "IRVING", "STREET3": null, "STREET4": null, "TSP_Type": "TSP", "start_date": 0, "data_as_of": "04/26/2023 03:24:48 PM", "owner": "SFMTA" }, "geometry": { "type": "Point", "coordinates": [ -122.463101994, 37.764177827 ] } },
{ "type": "Feature", "properties": { "STREET1": "16TH ST", "STREET2": "VERMONT", "STREET3": null, "STREET4": null, "TSP_Type": "TSP,FIRE PREEMPT", "start_date": 2008, "data_as_of": "04/26/2023 03:25:40 PM", "owner": "SFMTA" }, "geometry": { "type": "Point", "coordinates": [ -122.404623337, 37.765958189 ] } },
{ "type": "Feature", "properties": { "STREET1": "06TH ST", "STREET2": "FOLSOM", "STREET3": null, "STREET4": null, "TSP_Type": "TSP,FIRE PREEMPT", "start_date": 1999, "data_as_of": "04/26/2023 03:24:48 PM", "owner": "SFMTA" }, "geometry": { "type": "Point", "coordinates": [ -122.405615266, 37.778505104 ] } },
{ "type": "Feature", "properties": { "STREET1": "17TH ST", "STREET2": "MISSION", "STREET3": null, "STREET4": null, "TSP_Type": "TSP,FIRE PREEMPT", "start_date": 2007, "data_as_of": "04/26/2023 03:24:48 PM", "owner": "SFMTA" }, "geometry": { "type": "Point", "coordinates": [ -122.419512737, 37.763429273 ] } },
{ "type": "Feature", "properties": { "STREET1": "HYDE", "STREET2": "UNION", "STREET3": null, "STREET4": null, "TSP_Type": "CABLE CAR PREEMPTION", "start_date": 0, "data_as_of": "04/26/2023 03:25:40 PM", "owner": "SFMTA" }, "geometry": { "type": "Point", "coordinates": [ -122.419048779, 37.799198439 ] } },
{ "type": "Feature", "properties": { "STREET1": "CENTRAL", "STREET2": "FULTON", "STREET3": null, "STREET4": null, "TSP_Type": "TSP,FIRE PREEMPT", "start_date": 0, "data_as_of": "04/26/2023 03:24:48 PM", "owner": "SFMTA" }, "geometry": { "type": "Point", "coordinates": [ -122.444779891, 37.776016592 ] } },
{ "type": "Feature", "properties": { "STREET1": "GOLDEN GATE", "STREET2": "VAN NESS", "STREET3": null, "STREET4": null, "TSP_Type": "TSP,FIRE PREEMPT,TRANSIT PREEMPT", "start_date": 2021, "data_as_of": "04/26/2023 03:24:48 PM", "owner": "SFMTA" }, "geometry": { "type": "Point", "coordinates": [ -122.420439518, 37.781030842 ] } },
{ "type": "Feature", "properties": { "STREET1": "03RD ST", "STREET2": "19TH ST", "STREET3": null, "STREET4": null, "TSP_Type": "TSP,FIRE PREEMPT", "start_date": 2004, "data_as_of": "04/26/2023 03:24:48 PM", "owner": "SFMTA" }, "geometry": { "type": "Point", "coordinates": [ -122.388684016, 37.761766445 ] } },
{ "type": "Feature", "properties": { "STREET1": "AMADOR", "STREET2": "CARGO", "STREET3": "ILLINOIS", "STREET4": null, "TSP_Type": "HEAVY RAIL,BRIDGE PREEMPT", "start_date": 2008, "data_as_of": "04/26/2023 03:25:40 PM", "owner": "SFMTA" }, "geometry": { "type": "Point", "coordinates": [ -122.386265816, 37.745744732 ] } },
{ "type": "Feature", "properties": { "STREET1": "06TH AVE", "STREET2": "CALIFORNIA", "STREET3": null, "STREET4": null, "TSP_Type": "TSP,FIRE PREEMPT", "start_date": 2005, "data_as_of": "04/26/2023 03:24:48 PM", "owner": "SFMTA" }, "geometry": { "type": "Point", "coordinates": [ -122.46457216, 37.784993973 ] } },
{ "type": "Feature", "properties": { "STREET1": "16TH ST", "STREET2": "MARKET", "STREET3": "NOE", "STREET4": null, "TSP_Type": "TRANSIT PREEMPT", "start_date": 2022, "data_as_of": "04/26/2023 03:24:48 PM", "owner": "SFMTA" }, "geometry": { "type": "Point", "coordinates": [ -122.433074471, 37.764195713 ] } },
{ "type": "Feature", "properties": { "STREET1": "GENEVA", "STREET2": "MOSCOW", "STREET3": "SOUTH HILL", "STREET4": null, "TSP_Type": "TSP,FIRE PREEMPT", "start_date": 0, "data_as_of": "04/26/2023 03:24:48 PM", "owner": "SFMTA" }, "geometry": { "type": "Point", "coordinates": [ -122.43370682, 37.713143158 ] } },
{ "type": "Feature", "properties": { "STREET1": "BROADWAY", "STREET2": "STOCKTON", "STREET3": null, "STREET4": null, "TSP_Type": "TSP,FIRE PREEMPT", "start_date": 0, "data_as_of": "04/26/2023 03:24:48 PM", "owner": "SFMTA" }, "geometry": { "type": "Point", "coordinates": [ -122.408618845, 37.797627562 ] } },
{ "type": "Feature", "properties": { "STREET1": "GEARY", "STREET2": "VAN NESS", "STREET3": null, "STREET4": null, "TSP_Type": "TSP,FIRE PREEMPT", "start_date": 2021, "data_as_of": "04/26/2023 03:24:48 PM", "owner": "SFMTA" }, "geometry": { "type": "Point", "coordinates": [ -122.421393308, 37.785685802 ] } },
{ "type": "Feature", "properties": { "STREET1": "28TH AVE", "STREET2": "FULTON", "STREET3": null, "STREET4": null, "TSP_Type": "TSP,FIRE PREEMPT", "start_date": 2017, "data_as_of": "04/26/2023 03:25:40 PM", "owner": "SFMTA" }, "geometry": { "type": "Point", "coordinates": [ -122.487398289, 37.772423078 ] } },
{ "type": "Feature", "properties": { "STREET1": "CALIFORNIA", "STREET2": "LAUREL", "STREET3": null, "STREET4": null, "TSP_Type": "TSP,FIRE PREEMPT", "start_date": 2014, "data_as_of": "04/26/2023 03:24:48 PM", "owner": "SFMTA" }, "geometry": { "type": "Point", "coordinates": [ -122.450118442, 37.786837659 ] } },
{ "type": "Feature", "properties": { "STREET1": "BAYSHORE", "STREET2": "VISITACION", "STREET3": null, "STREET4": null, "TSP_Type": "TSP,FIRE PREEMPT", "start_date": 2004, "data_as_of": "04/26/2023 03:24:48 PM", "owner": "SFMTA" }, "geometry": { "type": "Point", "coordinates": [ -122.404226037, 37.710409217 ] } },
{ "type": "Feature", "properties": { "STREET1": "18TH AVE", "STREET2": "GEARY", "STREET3": null, "STREET4": null, "TSP_Type": "TSP,FIRE PREEMPT", "start_date": 2004, "data_as_of": "04/26/2023 03:24:48 PM", "owner": "SFMTA" }, "geometry": { "type": "Point", "coordinates": [ -122.477239888, 37.780439637 ] } },
{ "type": "Feature", "properties": { "STREET1": "11TH ST", "STREET2": "MISSION", "STREET3": null, "STREET4": null, "TSP_Type": "TSP,FIRE PREEMPT", "start_date": 2003, "data_as_of": "04/26/2023 03:24:48 PM", "owner": "SFMTA" }, "geometry": { "type": "Point", "coordinates": [ -122.417104136, 37.774325287 ] } },
{ "type": "Feature", "properties": { "STREET1": "16TH ST", "STREET2": "RHODE ISLAND", "STREET3": null, "STREET4": null, "TSP_Type": "TSP,FIRE PREEMPT", "start_date": 2012, "data_as_of": "04/26/2023 03:25:40 PM", "owner": "SFMTA" }, "geometry": { "type": "Point", "coordinates": [ -122.402684957, 37.766074608 ] } },
{ "type": "Feature", "properties": { "STREET1": "SUTTER", "STREET2": "TAYLOR", "STREET3": null, "STREET4": null, "TSP_Type": "TSP,FIRE PREEMPT", "start_date": 2017, "data_as_of": "04/26/2023 03:24:48 PM", "owner": "SFMTA" }, "geometry": { "type": "Point", "coordinates": [ -122.411885657, 37.788807544 ] } },
{ "type": "Feature", "properties": { "STREET1": "GRANT", "STREET2": "SUTTER", "STREET3": null, "STREET4": null, "TSP_Type": "TSP,FIRE PREEMPT", "start_date": 0, "data_as_of": "04/26/2023 03:24:48 PM", "owner": "SFMTA" }, "geometry": { "type": "Point", "coordinates": [ -122.405398674, 37.789631598 ] } },
{ "type": "Feature", "properties": { "STREET1": "GEARY", "STREET2": "POWELL", "STREET3": null, "STREET4": null, "TSP_Type": "TSP,FIRE PREEMPT", "start_date": 0, "data_as_of": "04/26/2023 03:24:48 PM", "owner": "SFMTA" }, "geometry": { "type": "Point", "coordinates": [ -122.408226726, 37.787359262 ] } },
{ "type": "Feature", "properties": { "STREET1": "LOWELL", "STREET2": "MISSION", "STREET3": "NAGLEE", "STREET4": null, "TSP_Type": "TSP,FIRE PREEMPT", "start_date": 0, "data_as_of": "04/26/2023 03:24:48 PM", "owner": "SFMTA" }, "geometry": { "type": "Point", "coordinates": [ -122.446383349, 37.71143615 ] } },
{ "type": "Feature", "properties": { "STREET1": "PACIFIC", "STREET2": "VAN NESS", "STREET3": null, "STREET4": null, "TSP_Type": "TSP,FIRE PREEMPT", "start_date": 2021, "data_as_of": "04/26/2023 03:24:48 PM", "owner": "SFMTA" }, "geometry": { "type": "Point", "coordinates": [ -122.423227147, 37.794817355 ] } },
{ "type": "Feature", "properties": { "STREET1": "CORTLAND", "STREET2": "MISSION", "STREET3": null, "STREET4": null, "TSP_Type": "TSP,FIRE PREEMPT", "start_date": 1999, "data_as_of": "04/26/2023 03:24:48 PM", "owner": "SFMTA" }, "geometry": { "type": "Point", "coordinates": [ -122.422840577, 37.741027407 ] } },
{ "type": "Feature", "properties": { "STREET1": "COOK", "STREET2": "GEARY", "STREET3": null, "STREET4": null, "TSP_Type": "TSP,FIRE PREEMPT", "start_date": 2021, "data_as_of": "04/26/2023 03:25:40 PM", "owner": "SFMTA" }, "geometry": { "type": "Point", "coordinates": [ -122.452143124, 37.781853292 ] } },
{ "type": "Feature", "properties": { "STREET1": "07TH AVE", "STREET2": "CLEMENT", "STREET3": null, "STREET4": null, "TSP_Type": "TSP,FIRE PREEMPT", "start_date": 2005, "data_as_of": "04/26/2023 03:25:40 PM", "owner": "SFMTA" }, "geometry": { "type": "Point", "coordinates": [ -122.465492391, 37.782890981 ] } },
{ "type": "Feature", "properties": { "STREET1": "24TH ST", "STREET2": "MISSION", "STREET3": null, "STREET4": null, "TSP_Type": "TSP,FIRE PREEMPT", "start_date": 1999, "data_as_of": "04/26/2023 03:24:48 PM", "owner": "SFMTA" }, "geometry": { "type": "Point", "coordinates": [ -122.418445271, 37.752239455 ] } },
{ "type": "Feature", "properties": { "STREET1": "CLAY", "STREET2": "KEARNY", "STREET3": null, "STREET4": null, "TSP_Type": "TSP,FIRE PREEMPT", "start_date": 0, "data_as_of": "04/26/2023 03:24:48 PM", "owner": "SFMTA" }, "geometry": { "type": "Point", "coordinates": [ -122.404796473, 37.794453005 ] } },
{ "type": "Feature", "properties": { "STREET1": "DELANO", "STREET2": "GENEVA", "STREET3": null, "STREET4": null, "TSP_Type": "TSP,FIRE PREEMPT", "start_date": 2018, "data_as_of": "04/26/2023 03:25:40 PM", "owner": "SFMTA" }, "geometry": { "type": "Point", "coordinates": [ -122.445127873, 37.720086705 ] } },
{ "type": "Feature", "properties": { "STREET1": "18TH AVE", "STREET2": "JUDAH", "STREET3": null, "STREET4": null, "TSP_Type": "TRANSIT PREEMPT", "start_date": 2016, "data_as_of": "04/26/2023 03:25:40 PM", "owner": "SFMTA" }, "geometry": { "type": "Point", "coordinates": [ -122.475924093, 37.761747152 ] } },
{ "type": "Feature", "properties": { "STREET1": "GEARY", "STREET2": "GOUGH", "STREET3": "PETER YORKE", "STREET4": "STARR KING", "TSP_Type": "TSP,FIRE PREEMPT", "start_date": 2021, "data_as_of": "04/26/2023 03:24:48 PM", "owner": "SFMTA" }, "geometry": { "type": "Point", "coordinates": [ -122.424687041, 37.785334622 ] } },
{ "type": "Feature", "properties": { "STREET1": "25TH ST", "STREET2": "MISSION", "STREET3": null, "STREET4": null, "TSP_Type": "TSP,FIRE PREEMPT", "start_date": 1999, "data_as_of": "04/26/2023 03:24:48 PM", "owner": "SFMTA" }, "geometry": { "type": "Point", "coordinates": [ -122.41828787, 37.75063965 ] } },
{ "type": "Feature", "properties": { "STREET1": "BEACH", "STREET2": "MASON", "STREET3": null, "STREET4": null, "TSP_Type": "TRANSIT PREEMPT", "start_date": 1998, "data_as_of": "04/26/2023 03:25:40 PM", "owner": "SFMTA" }, "geometry": { "type": "Point", "coordinates": [ -122.413975007, 37.807482513 ] } },
{ "type": "Feature", "properties": { "STREET1": "16TH ST", "STREET2": "WISCONSIN", "STREET3": null, "STREET4": null, "TSP_Type": "TSP,FIRE PREEMPT", "start_date": 2020, "data_as_of": "04/26/2023 03:25:40 PM", "owner": "SFMTA" }, "geometry": { "type": "Point", "coordinates": [ -122.39976096, 37.766250253 ] } },
{ "type": "Feature", "properties": { "STREET1": "CALIFORNIA", "STREET2": "HYDE", "STREET3": null, "STREET4": null, "TSP_Type": "CABLE CAR PREEMPTION", "start_date": 0, "data_as_of": "04/26/2023 03:24:48 PM", "owner": "SFMTA" }, "geometry": { "type": "Point", "coordinates": [ -122.417391335, 37.790973191 ] } },
{ "type": "Feature", "properties": { "STREET1": "DWIGHT", "STREET2": "PAUL", "STREET3": "SAN BRUNO", "STREET4": null, "TSP_Type": "TSP,FIRE PREEMPT", "start_date": 2002, "data_as_of": "04/26/2023 03:24:48 PM", "owner": "SFMTA" }, "geometry": { "type": "Point", "coordinates": [ -122.402060967, 37.723919995 ] } },
{ "type": "Feature", "properties": { "STREET1": "03RD ST", "STREET2": "26TH ST", "STREET3": null, "STREET4": null, "TSP_Type": "TSP", "start_date": 2005, "data_as_of": "04/26/2023 03:24:48 PM", "owner": "SFMTA" }, "geometry": { "type": "Point", "coordinates": [ -122.387633975, 37.751559603 ] } },
{ "type": "Feature", "properties": { "STREET1": "LOMBARD", "STREET2": "PIERCE", "STREET3": null, "STREET4": null, "TSP_Type": "TSP,FIRE PREEMPT", "start_date": 0, "data_as_of": "04/26/2023 03:24:48 PM", "owner": "SFMTA" }, "geometry": { "type": "Point", "coordinates": [ -122.439336653, 37.799425312 ] } },
{ "type": "Feature", "properties": { "STREET1": "GENEVA", "STREET2": "HOWTH", "STREET3": null, "STREET4": null, "TSP_Type": "TSP,FIRE PREEMPT", "start_date": 2013, "data_as_of": "04/26/2023 03:25:40 PM", "owner": "SFMTA" }, "geometry": { "type": "Point", "coordinates": [ -122.450118226, 37.722082795 ] } },
{ "type": "Feature", "properties": { "STREET1": "BEACH", "STREET2": "HYDE", "STREET3": null, "STREET4": null, "TSP_Type": "CABLE CAR PREEMPTION", "start_date": 0, "data_as_of": "04/26/2023 03:24:48 PM", "owner": "SFMTA" }, "geometry": { "type": "Point", "coordinates": [ -122.420559965, 37.806657733 ] } },
{ "type": "Feature", "properties": { "STREET1": "03RD ST", "STREET2": "LANE", "STREET3": "YOSEMITE", "STREET4": null, "TSP_Type": "TSP", "start_date": 2005, "data_as_of": "04/26/2023 03:24:48 PM", "owner": "SFMTA" }, "geometry": { "type": "Point", "coordinates": [ -122.393232787, 37.727733468 ] } },
{ "type": "Feature", "properties": { "STREET1": "EMBARCADERO", "STREET2": "MIDBLOCK AT", "STREET3": "PIER 39", "STREET4": null, "TSP_Type": "TSP,TRANSIT PREEMPT", "start_date": 1998, "data_as_of": "04/26/2023 03:25:40 PM", "owner": "SFMTA" }, "geometry": { "type": "Point", "coordinates": [ -122.410012191, 37.808222445 ] } },
{ "type": "Feature", "properties": { "STREET1": "HAIGHT", "STREET2": "MASONIC", "STREET3": null, "STREET4": null, "TSP_Type": "TSP,FIRE PREEMPT", "start_date": 0, "data_as_of": "04/26/2023 03:24:48 PM", "owner": "SFMTA" }, "geometry": { "type": "Point", "coordinates": [ -122.44534499, 37.770210175 ] } },
{ "type": "Feature", "properties": { "STREET1": "KEARNY", "STREET2": "WASHINGTON", "STREET3": null, "STREET4": null, "TSP_Type": "TSP,FIRE PREEMPT", "start_date": 0, "data_as_of": "04/26/2023 03:24:48 PM", "owner": "SFMTA" }, "geometry": { "type": "Point", "coordinates": [ -122.404957208, 37.795326692 ] } },
{ "type": "Feature", "properties": { "STREET1": "48TH AVE", "STREET2": "EL CAMINO DEL MAR", "STREET3": "POINT LOBOS", "STREET4": null, "TSP_Type": "TSP", "start_date": 1999, "data_as_of": "04/26/2023 03:24:48 PM", "owner": "SFMTA" }, "geometry": { "type": "Point", "coordinates": [ -122.50943294, 37.77985107 ] } },
{ "type": "Feature", "properties": { "STREET1": "LOMBARD", "STREET2": "OCTAVIA", "STREET3": null, "STREET4": null, "TSP_Type": "TSP,FIRE PREEMPT", "start_date": 0, "data_as_of": "04/26/2023 03:24:48 PM", "owner": "SFMTA" }, "geometry": { "type": "Point", "coordinates": [ -122.429470884, 37.800678407 ] } },
{ "type": "Feature", "properties": { "STREET1": "MASON", "STREET2": "UNION", "STREET3": null, "STREET4": null, "TSP_Type": "CABLE CAR PREEMPTION", "start_date": 0, "data_as_of": "04/26/2023 03:24:48 PM", "owner": "SFMTA" }, "geometry": { "type": "Point", "coordinates": [ -122.412471378, 37.800032399 ] } },
{ "type": "Feature", "properties": { "STREET1": "JONES", "STREET2": "SUTTER", "STREET3": null, "STREET4": null, "TSP_Type": "TSP,FIRE PREEMPT", "start_date": 2014, "data_as_of": "04/26/2023 03:24:48 PM", "owner": "SFMTA" }, "geometry": { "type": "Point", "coordinates": [ -122.413541442, 37.788598204 ] } },
{ "type": "Feature", "properties": { "STREET1": "POLK", "STREET2": "SUTTER", "STREET3": null, "STREET4": null, "TSP_Type": "TSP,FIRE PREEMPT", "start_date": 2018, "data_as_of": "04/26/2023 03:24:48 PM", "owner": "SFMTA" }, "geometry": { "type": "Point", "coordinates": [ -122.420116075, 37.787756652 ] } },
{ "type": "Feature", "properties": { "STREET1": "05TH ST", "STREET2": "MISSION", "STREET3": null, "STREET4": null, "TSP_Type": "TSP,FIRE PREEMPT", "start_date": 2003, "data_as_of": "04/26/2023 03:25:40 PM", "owner": "SFMTA" }, "geometry": { "type": "Point", "coordinates": [ -122.406479403, 37.782731636 ] } },
{ "type": "Feature", "properties": { "STREET1": "23RD ST", "STREET2": "MISSION", "STREET3": null, "STREET4": null, "TSP_Type": "TSP,FIRE PREEMPT", "start_date": 2007, "data_as_of": "04/26/2023 03:25:40 PM", "owner": "SFMTA" }, "geometry": { "type": "Point", "coordinates": [ -122.418593945, 37.753836588 ] } },
{ "type": "Feature", "properties": { "STREET1": "HYDE", "STREET2": "POST", "STREET3": null, "STREET4": null, "TSP_Type": "TSP,FIRE PREEMPT", "start_date": 0, "data_as_of": "04/26/2023 03:24:48 PM", "owner": "SFMTA" }, "geometry": { "type": "Point", "coordinates": [ -122.416638697, 37.78724521 ] } },
{ "type": "Feature", "properties": { "STREET1": "BEACH", "STREET2": "POWELL", "STREET3": null, "STREET4": null, "TSP_Type": "TRANSIT PREEMPT", "start_date": 1998, "data_as_of": "04/26/2023 03:24:48 PM", "owner": "SFMTA" }, "geometry": { "type": "Point", "coordinates": [ -122.412329557, 37.807690494 ] } },
{ "type": "Feature", "properties": { "STREET1": "FILLMORE", "STREET2": "TURK", "STREET3": null, "STREET4": null, "TSP_Type": "TSP,FIRE PREEMPT", "start_date": 2014, "data_as_of": "04/26/2023 03:24:48 PM", "owner": "SFMTA" }, "geometry": { "type": "Point", "coordinates": [ -122.43214039, 37.78049626 ] } },
{ "type": "Feature", "properties": { "STREET1": "COLUMBUS", "STREET2": "TRACY", "STREET3": "VALLEJO", "STREET4": null, "TSP_Type": "TSP,FIRE PREEMPT", "start_date": 0, "data_as_of": "04/26/2023 03:24:48 PM", "owner": "SFMTA" }, "geometry": { "type": "Point", "coordinates": [ -122.407869496, 37.798696861 ] } },
{ "type": "Feature", "properties": { "STREET1": "CALIFORNIA", "STREET2": "VAN NESS", "STREET3": null, "STREET4": null, "TSP_Type": "TSP,FIRE PREEMPT", "start_date": 2021, "data_as_of": "04/26/2023 03:24:48 PM", "owner": "SFMTA" }, "geometry": { "type": "Point", "coordinates": [ -122.422328955, 37.790369659 ] } },
{ "type": "Feature", "properties": { "STREET1": "JACKSON", "STREET2": "MASON", "STREET3": null, "STREET4": null, "TSP_Type": "CABLE CAR PREEMPTION", "start_date": 0, "data_as_of": "04/26/2023 03:25:40 PM", "owner": "SFMTA" }, "geometry": { "type": "Point", "coordinates": [ -122.411541532, 37.795408527 ] } },
{ "type": "Feature", "properties": { "STREET1": "BAYSHORE", "STREET2": "HESTER", "STREET3": null, "STREET4": null, "TSP_Type": "TSP,ACTUATED TRANSIT PHASE", "start_date": 2004, "data_as_of": "04/26/2023 03:24:48 PM", "owner": "SFMTA" }, "geometry": { "type": "Point", "coordinates": [ -122.398981898, 37.715329512 ] } },
{ "type": "Feature", "properties": { "STREET1": "MISSION", "STREET2": "NIAGARA", "STREET3": "POPE", "STREET4": "ROLPH", "TSP_Type": "TSP,FIRE PREEMPT", "start_date": 2018, "data_as_of": "04/26/2023 03:25:40 PM", "owner": "SFMTA" }, "geometry": { "type": "Point", "coordinates": [ -122.441691159, 37.715572699 ] } },
{ "type": "Feature", "properties": { "STREET1": "07TH ST", "STREET2": "FOLSOM", "STREET3": null, "STREET4": null, "TSP_Type": "TSP,FIRE PREEMPT", "start_date": 1999, "data_as_of": "04/26/2023 03:24:48 PM", "owner": "SFMTA" }, "geometry": { "type": "Point", "coordinates": [ -122.40784206, 37.776746109 ] } },
{ "type": "Feature", "properties": { "STREET1": "22ND AVE", "STREET2": "GEARY", "STREET3": null, "STREET4": null, "TSP_Type": "TSP,FIRE PREEMPT", "start_date": 2016, "data_as_of": "04/26/2023 03:25:40 PM", "owner": "SFMTA" }, "geometry": { "type": "Point", "coordinates": [ -122.481515722, 37.780225819 ] } },
{ "type": "Feature", "properties": { "STREET1": "SUNSET", "STREET2": "TARAVAL", "STREET3": null, "STREET4": null, "TSP_Type": "TSP", "start_date": 0, "data_as_of": "04/26/2023 03:24:48 PM", "owner": "SFMTA" }, "geometry": { "type": "Point", "coordinates": [ -122.494443285, 37.742225027 ] } },
{ "type": "Feature", "properties": { "STREET1": "JONES", "STREET2": "O'FARRELL", "STREET3": null, "STREET4": null, "TSP_Type": "TSP,FIRE PREEMPT", "start_date": 0, "data_as_of": "04/26/2023 03:24:48 PM", "owner": "SFMTA" }, "geometry": { "type": "Point", "coordinates": [ -122.412969667, 37.785789584 ] } },
{ "type": "Feature", "properties": { "STREET1": "HAIGHT", "STREET2": "STANYAN", "STREET3": null, "STREET4": null, "TSP_Type": "TSP,FIRE PREEMPT", "start_date": 2021, "data_as_of": "04/26/2023 03:25:40 PM", "owner": "SFMTA" }, "geometry": { "type": "Point", "coordinates": [ -122.453536875, 37.769165225 ] } },
{ "type": "Feature", "properties": { "STREET1": "07TH AVE", "STREET2": "GEARY", "STREET3": null, "STREET4": null, "TSP_Type": "TSP,FIRE PREEMPT", "start_date": 2004, "data_as_of": "04/26/2023 03:25:40 PM", "owner": "SFMTA" }, "geometry": { "type": "Point", "coordinates": [ -122.465352871, 37.780965491 ] } },